{
    "type": "FeatureCollection",
    "crs": { "type": "name", "properties": { "name": "urn:ogc:def:crs:OGC:1.3:CRS84" } },
                                                                                    
    "features": [
    { "type": "Feature", "properties": { "id": "1", "cod_ibge": "230760", "id_cras": "23076020300", "nome": "CRAS - CENTRO DE REFERÊNCIA DE ASSISTÊNCIA SOCIAL", "tipo": "Rua", "logradouro": "JOSÉ NUNES GUERREIRO", "numero": "0", "complemento": "", "bairro": "ANTONIO HOLANDA DE OLIVEIRA", "referencia": "Próximo ao IFCE", "cep": "62930000", "municipio": "Limoeiro do Norte", "capacidade": "5.000 famílias referenciadas" }, "geometry": { "type": "Point", "coordinates": [ -38.149295, -5.14929 ] } },
    { "type": "Feature", "properties": { "id": "2", "cod_ibge": "230760", "id_cras": "23076002100", "nome": "CRAS - CENTRO DE REFERÊNCIA DE ASSISTÊNCIA SOCIAL", "tipo": "Rua", "logradouro": "RAIMUNDO NONATO DE MOURA", "numero": "590", "complemento": "", "bairro": "BOM NOME", "referencia": "", "cep": "62930000", "municipio": "Limoeiro do Norte", "capacidade": "5.000 famílias referenciadas" }, "geometry": { "type": "Point", "coordinates": [ -38.099878, -5.148713 ] } },
    { "type": "Feature", "properties": { "id": "3", "cod_ibge": "230610", "id_cras": "23061002500", "nome": "TIA MARIA JANICA - CRAS SEDE", "tipo": "Rua", "logradouro": "PEDRO RODRIGUES DE OLIVEIRA", "numero": "168", "complemento": "", "bairro": "AÇUDE", "referencia": "PRÓXIMO À FÁBRICA PALMINORTE", "cep": "62620000", "municipio": "Irauçuba", "capacidade": "3.500 famílias referenciadas" }, "geometry": { "type": "Point", "coordinates": [ -39.778742, -3.74623 ] } },
    { "type": "Feature", "properties": { "id": "4", "cod_ibge": "231250", "id_cras": "23125001400", "nome": "CASA DAS FAMILIAS", "tipo": "Rua", "logradouro": "CONEGO CLIMERIO CHAVES", "numero": "199", "complemento": "", "bairro": "CENTRO", "referencia": "", "cep": "62965000", "municipio": "São João do Jaguaribe", "capacidade": "2.500 famílias referenciadas" }, "geometry": { "type": "Point", "coordinates": [ -38.27287, -5.270169 ] } },
    { "type": "Feature", "properties": { "id": "5", "cod_ibge": "230790", "id_cras": "23079004100", "nome": "Centro de Referencia da Assistência Social", "tipo": "Rua", "logradouro": "Rufino Pereira", "numero": "598", "complemento": "", "bairro": "Matadouro", "referencia": "", "cep": "62450000", "municipio": "Martinópole", "capacidade": "2.500 famílias referenciadas" }, "geometry": { "type": "Point", "coordinates": [ -40.696213, -3.228507 ] } },
    { "type": "Feature", "properties": { "id": "6", "cod_ibge": "230310", "id_cras": "23031004200", "nome": "CENTRO DE REFERENCIA DA ASSISTÊNCIA SOCIAL", "tipo": "Rua", "logradouro": "MANOEL HONORIO DE BRITO", "numero": "0", "complemento": "", "bairro": "CENTRO", "referencia": "", "cep": "62184000", "municipio": "Cariré", "capacidade": "2.500 famílias referenciadas" }, "geometry": { "type": "Point", "coordinates": [ -40.476639, -3.950251 ] } },
    { "type": "Feature", "properties": { "id": "7", "cod_ibge": "231123", "id_cras": "23112304100", "nome": "CENTRO DE REFERÊNCIA DA ASSISTÊNCIA SOCIAL", "tipo": "Rua", "logradouro": "Honor Diogenes", "numero": "700", "complemento": "", "bairro": "CENTRO", "referencia": "", "cep": "62990000", "municipio": "Potiretama", "capacidade": "2.500 famílias referenciadas" }, "geometry": { "type": "Point", "coordinates": [ -38.156462, -5.721468 ] } },
    { "type": "Feature", "properties": { "id": "8", "cod_ibge": "231335", "id_cras": "23133502100", "nome": "CENTRO DE REFERÊNCIA DA ASSISTÊNCIA SOCIAL", "tipo": "Rua", "logradouro": "Avenida Gabriel Aguiar Filho", "numero": "729", "complemento": "", "bairro": "CENTRO", "referencia": "Próximo ao mercado público.", "cep": "62610000", "municipio": "Tejuçuoca", "capacidade": "2.500 famílias referenciadas" }, "geometry": { "type": "Point", "coordinates": [ -39.579502, -3.990691 ] } },
    { "type": "Feature", "properties": { "id": "9", "cod_ibge": "230640", "id_cras": "23064001800", "nome": "Centro de Referência da Assistência Social - ARAPARI", "tipo": "Rua", "logradouro": "Maria Apolônia Soares", "numero": "61", "complemento": "Zona rural", "bairro": "Arapari", "referencia": "Frente praça", "cep": "62500000", "municipio": "Itapipoca", "capacidade": "5.000 famílias referenciadas" }, "geometry": { "type": "Point", "coordinates": [ -39.58418, -3.556769 ] } },
    { "type": "Feature", "properties": { "id": "10", "cod_ibge": "230250", "id_cras": "23025004000", "nome": "CENTRO DE REFERENCIA DA ASSISTENCIA SOCIAL - CRAS I", "tipo": "Rua", "logradouro": "PADRE GOMES", "numero": "0", "complemento": "", "bairro": "RENÊ LUCENA II", "referencia": "", "cep": "63260000", "municipio": "Brejo Santo", "capacidade": "3.500 famílias referenciadas" }, "geometry": { "type": "Point", "coordinates": [ -38.9847, -7.49326 ] } },
    { "type": "Feature", "properties": { "id": "11", "cod_ibge": "230090", "id_cras": "23009002100", "nome": "Centro de Referência da Assistência Social - CRAS SEDE", "tipo": "Rua", "logradouro": "José Lopes Filho", "numero": "369", "complemento": "Centro", "bairro": "Centro", "referencia": "Prox a pousada Princesa do Vale", "cep": "62630000", "municipio": "Apuiarés", "capacidade": "2.500 famílias referenciadas" }, "geometry": { "type": "Point", "coordinates": [ -39.43186, -3.947595 ] } },
    { "type": "Feature", "properties": { "id": "12", "cod_ibge": "230125", "id_cras": "23012501100", "nome": "CENTRO DE REFERENCIA DA ASSISTENCIA SOCIAL - CRAS\/CASA DA FAMILIA", "tipo": "Rua", "logradouro": "PREFEITO FRANCISCO MOURÃO LIMA", "numero": "0", "complemento": "", "bairro": "CENTRO", "referencia": "", "cep": "62210000", "municipio": "Ararendá", "capacidade": "2.500 famílias referenciadas" }, "geometry": { "type": "Point", "coordinates": [ -40.831203, -4.751175 ] } },
    { "type": "Feature", "properties": { "id": "13", "cod_ibge": "230640", "id_cras": "23064001800", "nome": "Centro de Referência da Assistência Social - DESERTO", "tipo": "Rua", "logradouro": "RUA DA FELICIDADE", "numero": "0", "complemento": "", "bairro": "DESERTO", "referencia": "", "cep": "62500000", "municipio": "Itapipoca", "capacidade": "5.000 famílias referenciadas" }, "geometry": { "type": "Point", "coordinates": [ -39.49217, -3.512629 ] } },
    { "type": "Feature", "properties": { "id": "14", "cod_ibge": "230640", "id_cras": "23064001800", "nome": "Centro de Referência da Assistência Social - MARANHÃO", "tipo": "Rua", "logradouro": "ANTÔNIO MENTROS", "numero": "2030", "complemento": "", "bairro": "CRUZEIRO", "referencia": "Próximo a IGREJA SÃO JOSÉ", "cep": "62500000", "municipio": "Itapipoca", "capacidade": "5.000 famílias referenciadas" }, "geometry": { "type": "Point", "coordinates": [ -39.581991, -3.481798 ] } },
    { "type": "Feature", "properties": { "id": "15", "cod_ibge": "231090", "id_cras": "23109002900", "nome": "CENTRO DE REFERENCIA DA ASSISTENCIA SOCIAL -CRAS", "tipo": "Rua", "logradouro": "JOSÉ BEZERRA LIMA", "numero": "0", "complemento": "", "bairro": "PIQUEZINHO", "referencia": "", "cep": "63605000", "municipio": "Piquet Carneiro", "capacidade": "2.500 famílias referenciadas" }, "geometry": { "type": "Point", "coordinates": [ -39.419777, -5.802574 ] } },
    { "type": "Feature", "properties": { "id": "16", "cod_ibge": "230770", "id_cras": "23077002200", "nome": "CENTRO DE REFERENCIA DA ASSISTENCIA SOCIAL DA SAPUPARA", "tipo": "Avenida", "logradouro": "TABATINGA", "numero": "0", "complemento": "", "bairro": "SAPUPARA", "referencia": "", "cep": "61950000", "municipio": "Maranguape", "capacidade": "5.000 famílias referenciadas" }, "geometry": { "type": "Point", "coordinates": [ -38.683256, -3.891812 ] } },
    { "type": "Feature", "properties": { "id": "17", "cod_ibge": "230770", "id_cras": "23077002100", "nome": "CENTRO DE REFERENCIA DA ASSISTENCIA SOCIAL DO NOVO MARANGUAPE", "tipo": "Rua", "logradouro": "Gontram Nascimento", "numero": "0", "complemento": "", "bairro": "OUTRA BANDA", "referencia": "ESCOLA RENATO MOTA", "cep": "61942220", "municipio": "Maranguape", "capacidade": "5.000 famílias referenciadas" }, "geometry": { "type": "Point", "coordinates": [ -38.676879, -3.880583 ] } },
    { "type": "Feature", "properties": { "id": "18", "cod_ibge": "230770", "id_cras": "23077002200", "nome": "CENTRO DE REFERENCIA DA ASSISTENCIA SOCIAL DO PARQUE IRACEMA", "tipo": "Rua", "logradouro": "ANTONIO GOMES BESSA", "numero": "0", "complemento": "", "bairro": "PARQUE IRACEMA", "referencia": "BERÇARIO MÁRIO VALENTIM", "cep": "61948220", "municipio": "Maranguape", "capacidade": "5.000 famílias referenciadas" }, "geometry": { "type": "Point", "coordinates": [ -38.683256, -3.891812 ] } },
    { "type": "Feature", "properties": { "id": "19", "cod_ibge": "231000", "id_cras": "23100004100", "nome": "CENTRO DE REFERENCIA DE ASSISTENCIA SOCIAL", "tipo": "Avenida", "logradouro": "POSSIDONIO BARRETO", "numero": "523", "complemento": "", "bairro": "CENTRO", "referencia": "", "cep": "62910000", "municipio": "Palhano", "capacidade": "2.500 famílias referenciadas" }, "geometry": { "type": "Point", "coordinates": [ -37.963128, -4.748946 ] } },
    { "type": "Feature", "properties": { "id": "20", "cod_ibge": "230050", "id_cras": "23005001400", "nome": "CENTRO DE REFERÊNCIA DE ASSISTÊNCIA SOCIAL", "tipo": "Rua", "logradouro": "Praça Gregório Cunha Freire", "numero": "146", "complemento": "", "bairro": "Bela Vista", "referencia": "Praça Gregório Cunha", "cep": "62120000", "municipio": "Alcântaras", "capacidade": "2.500 famílias referenciadas" }, "geometry": { "type": "Point", "coordinates": [ -40.55227, -3.592276 ] } },
    { "type": "Feature", "properties": { "id": "21", "cod_ibge": "230920", "id_cras": "23092004000", "nome": "CENTRO DE REFERÊNCIA DE ASSISTÊNCIA SOCIAL", "tipo": "Avenida", "logradouro": "JEREMIAS PEREIRA", "numero": "1", "complemento": "", "bairro": "CENTRO", "referencia": "PX A ESCOLA ESTADUAL PDE LUIS FILGUEIRAS", "cep": "63165000", "municipio": "Nova Olinda", "capacidade": "2.500 famílias referenciadas" }, "geometry": { "type": "Point", "coordinates": [ -39.682789, -7.090629 ] } },
    { "type": "Feature", "properties": { "id": "22", "cod_ibge": "231395", "id_cras": "23139510700", "nome": "CENTRO DE REFERÊNCIA DE ASSISTÊNCIA SOCIAL", "tipo": "Rua", "logradouro": "Rua Delmiro Golveia", "numero": "0", "complemento": "", "bairro": "centro", "referencia": "", "cep": "62265000", "municipio": "Varjota", "capacidade": "2.500 famílias referenciadas" }, "geometry": { "type": "Point", "coordinates": [ -40.482709, -4.199835 ] } },
    { "type": "Feature", "properties": { "id": "23", "cod_ibge": "230710", "id_cras": "23071002800", "nome": "CENTRO DE REFERÊNCIA DE ASSISTÊNCIA SOCIAL - CRAS I", "tipo": "Rua", "logradouro": "RUA PADRE MIGUEL COELHO", "numero": "71", "complemento": "", "bairro": "CENTRO", "referencia": "", "cep": "63290000", "municipio": "Jardim", "capacidade": "3.500 famílias referenciadas" }, "geometry": { "type": "Point", "coordinates": [ -39.279022, -7.585285 ] } },
    { "type": "Feature", "properties": { "id": "24", "cod_ibge": "230780", "id_cras": "23078003300", "nome": "CENTRO DE REFERÊNCIA DE ASSISTÊNCIA SOCIAL - SEDE", "tipo": "Rua", "logradouro": "RUA ENESTO GEISEL", "numero": "620", "complemento": "0", "bairro": "CENTRO", "referencia": "PRÓXIMO A ESCOLA RICARDO SOUSA NEVES", "cep": "62560000", "municipio": "Marco", "capacidade": "3.500 famílias referenciadas" }, "geometry": { "type": "Point", "coordinates": [ -40.151073, -3.12092 ] } },
    { "type": "Feature", "properties": { "id": "25", "cod_ibge": "230533", "id_cras": "23053301800", "nome": "CENTRO DE REFERÊNCIA DE ASSISTÊNCIA SOCIAL DE IBICUITINGA", "tipo": "Rua", "logradouro": "JOÃO DUARTE", "numero": "2212", "complemento": "", "bairro": "CENTRO", "referencia": "Ao lado da Farmácia Pe. Cícero", "cep": "62955000", "municipio": "Ibicuitinga", "capacidade": "2.500 famílias referenciadas" }, "geometry": { "type": "Point", "coordinates": [ -38.636577, -4.97661 ] } },
    { "type": "Feature", "properties": { "id": "26", "cod_ibge": "230980", "id_cras": "23098003600", "nome": "Centro de Referência de Assitência Social de Pacoti", "tipo": "Rua", "logradouro": "RUA JOÃO HIPOLYTO", "numero": "56", "complemento": "", "bairro": "CENTRO", "referencia": "Bairro Paca", "cep": "62770000", "municipio": "Pacoti", "capacidade": "2.500 famílias referenciadas" }, "geometry": { "type": "Point", "coordinates": [ -38.917673, -4.225129 ] } },
    { "type": "Feature", "properties": { "id": "27", "cod_ibge": "230490", "id_cras": "23049003300", "nome": "CON° RAIMUNDO CASSIANO FEIJÃO", "tipo": "Rua", "logradouro": "Princesa Isabel", "numero": "1520", "complemento": "", "bairro": "Capitão José Linhares", "referencia": "Prédio do Fórum", "cep": "62190000", "municipio": "Groaíras", "capacidade": "2.500 famílias referenciadas" }, "geometry": { "type": "Point", "coordinates": [ -40.3814, -3.914757 ] } },
    { "type": "Feature", "properties": { "id": "28", "cod_ibge": "230130", "id_cras": "23013004000", "nome": "CRAS   PADRE RAIMUNDO ARAUJO E SILVA", "tipo": "Rua", "logradouro": "Antonio Henrique de Lima", "numero": "0", "complemento": "ZONA URBANA", "bairro": "CENTRO", "referencia": "Próximo a STDS-M", "cep": "63170000", "municipio": "Araripe", "capacidade": "3.500 famílias referenciadas" }, "geometry": { "type": "Point", "coordinates": [ -40.045617, -7.212881 ] } },
    { "type": "Feature", "properties": { "id": "29", "cod_ibge": "230765", "id_cras": "23076534600", "nome": "CRAS  ACARACUZINHO", "tipo": "Rua", "logradouro": "101", "numero": "172", "complemento": "", "bairro": "Conj. Acaracuzinho", "referencia": "", "cep": "61920020", "municipio": "Maracanaú", "capacidade": "5.000 famílias referenciadas" }, "geometry": { "type": "Point", "coordinates": [ -38.609696, -3.849576 ] } },
    { "type": "Feature", "properties": { "id": "30", "cod_ibge": "230523", "id_cras": "23052335400", "nome": "CRAS  CATOLÉ", "tipo": "Rua", "logradouro": "João de Sousa Falcão", "numero": "716", "complemento": "", "bairro": "Catolé", "referencia": "Ao lado do posto de Saúde e do colégio João Antonio.", "cep": "62880000", "municipio": "Horizonte", "capacidade": "5.000 famílias referenciadas" }, "geometry": { "type": "Point", "coordinates": [ -38.508424, -4.066699 ] } },
    { "type": "Feature", "properties": { "id": "31", "cod_ibge": "230870", "id_cras": "23087020500", "nome": "CRAS  FAMILIA FELIZ ARUARU", "tipo": "Rua", "logradouro": "PROFESSORA AURÉLIA", "numero": "100", "complemento": "DISTRITO", "bairro": "DISTRITO ARUARU", "referencia": "ao lado da CEI Maria Nadir Barbosa", "cep": "62951000", "municipio": "Morada Nova", "capacidade": "5.000 famílias referenciadas" }, "geometry": { "type": "Point", "coordinates": [ -38.36347, -4.582793 ] } },
    { "type": "Feature", "properties": { "id": "32", "cod_ibge": "230860", "id_cras": "23086014800", "nome": "CRAS - Antonia Eunita Monteiro Campos", "tipo": "Rua", "logradouro": "José Marques Brasil", "numero": "0", "complemento": "", "bairro": "Carrapicho", "referencia": "", "cep": "63780000", "municipio": "Monsenhor Tabosa", "capacidade": "2.500 famílias referenciadas" }, "geometry": { "type": "Point", "coordinates": [ -40.071537, -4.785324 ] } },
    { "type": "Feature", "properties": { "id": "33", "cod_ibge": "231095", "id_cras": "23109501300", "nome": "CRAS - ANTONIO PAIVA DAMASCENO - PIRES FERREIRA - CE", "tipo": "Avenida", "logradouro": "JOAO TAUMATURGO DIAS", "numero": "23", "complemento": "", "bairro": "CENTRO", "referencia": "PROXIMO AO GINÁSIO POLIESPORTIVO DR ROCHA AGUIAR", "cep": "62255000", "municipio": "Pires Ferreira", "capacidade": "2.500 famílias referenciadas" }, "geometry": { "type": "Point", "coordinates": [ -40.646636, -4.246428 ] } },
    { "type": "Feature", "properties": { "id": "34", "cod_ibge": "231330", "id_cras": "23133001100", "nome": "CRAS - Bezerra e Sousa I", "tipo": "Rua", "logradouro": "Julio Gonçalves da Silva", "numero": "956", "complemento": "", "bairro": "Bezerra e Sousa", "referencia": "Próximo a garagem do Sr. João Turismo", "cep": "63660000", "municipio": "Tauá", "capacidade": "5.000 famílias referenciadas" }, "geometry": { "type": "Point", "coordinates": [ -40.28682, -6.010859 ] } },
    { "type": "Feature", "properties": { "id": "35", "cod_ibge": "230400", "id_cras": "23040004100", "nome": "CRAS - CASA DA FAMÍLIA", "tipo": "Avenida", "logradouro": "DOM JOSÉ", "numero": "0", "complemento": "", "bairro": "CENTRO", "referencia": "Próximo ao Prédio da Prefeitura Municipal de Coreaú", "cep": "62160000", "municipio": "Coreaú", "capacidade": "3.500 famílias referenciadas" }, "geometry": { "type": "Point", "coordinates": [ -40.655245, -3.550954 ] } },
    { "type": "Feature", "properties": { "id": "36", "cod_ibge": "231030", "id_cras": "23103003500", "nome": "CRAS - Centro", "tipo": "Rua", "logradouro": "Da Matriz", "numero": "0", "complemento": "", "bairro": "Horácio Alves", "referencia": "", "cep": "63680000", "municipio": "Parambu", "capacidade": "3.500 famílias referenciadas" }, "geometry": { "type": "Point", "coordinates": [ -40.694, -6.211 ] } },
    { "type": "Feature", "properties": { "id": "37", "cod_ibge": "230320", "id_cras": "23032002800", "nome": "CRAS - CENTRO", "tipo": "Rua", "logradouro": "CORONEL VULPINO DA CUNHA", "numero": "348", "complemento": "", "bairro": "CENTRO", "referencia": "PROXIMA A ESCOLA VIEIRA RAFAEL", "cep": "63220000", "municipio": "Caririaçu", "capacidade": "3.500 famílias referenciadas" }, "geometry": { "type": "Point", "coordinates": [ -39.284041, -7.042887 ] } },
    { "type": "Feature", "properties": { "id": "38", "cod_ibge": "230670", "id_cras": "23067020100", "nome": "CRAS - CENTRO DE REFERENCIA DA ASSISTENCIA SOCIAL", "tipo": "Rua", "logradouro": "ANTONIO LOURIVAL DE LIMA", "numero": "867", "complemento": "", "bairro": "NOSSA SENHORA DA CONCEIÇÃO", "referencia": "", "cep": "63480000", "municipio": "Jaguaretama", "capacidade": "2.500 famílias referenciadas" }, "geometry": { "type": "Point", "coordinates": [ -38.7747, -5.610626 ] } },
    { "type": "Feature", "properties": { "id": "39", "cod_ibge": "231100", "id_cras": "23110003500", "nome": "CRAS - Centro de Referência da Assistência Social", "tipo": "Rua", "logradouro": "Rua Francineuda Pereira da Cruz", "numero": "1", "complemento": "", "bairro": "Cohab", "referencia": "", "cep": "62220000", "municipio": "Poranga", "capacidade": "2.500 famílias referenciadas" }, "geometry": { "type": "Point", "coordinates": [ -40.915854, -4.745145 ] } },
    { "type": "Feature", "properties": { "id": "40", "cod_ibge": "230940", "id_cras": "23094002400", "nome": "CRAS - CENTRO DE REFERÊNCIA DA ASSISTÊNCIA SOCIAL", "tipo": "Avenida", "logradouro": "FRANCISCO RUFINO", "numero": "1", "complemento": "0", "bairro": "CENTRO", "referencia": "", "cep": "63740000", "municipio": "Novo Oriente", "capacidade": "3.500 famílias referenciadas" }, "geometry": { "type": "Point", "coordinates": [ -40.775398, -5.534077 ] } },
    { "type": "Feature", "properties": { "id": "41", "cod_ibge": "231050", "id_cras": "23105002100", "nome": "CRAS - CENTRO DE REFERÊNCIA DA ASSISTÊNCIA SOCIAL -  SEDE", "tipo": "Rua", "logradouro": "FURTUNATO SILVA", "numero": "116", "complemento": "", "bairro": "BOM PRINCÍPIO", "referencia": "NA RUA DO HOSPITAL SÃO SEBASTIÃO", "cep": "63630000", "municipio": "Pedra Branca", "capacidade": "3.500 famílias referenciadas" }, "geometry": { "type": "Point", "coordinates": [ -39.716974, -5.456981 ] } },
    { "type": "Feature", "properties": { "id": "42", "cod_ibge": "230250", "id_cras": "23025020000", "nome": "CRAS - CENTRO DE REFERENCIA DA ASSISTENCIA SOCIAL - CRAS II", "tipo": "Rua", "logradouro": "Guilherme Fernandes Batista", "numero": "0", "complemento": "", "bairro": "Morro Dourado", "referencia": "", "cep": "63260000", "municipio": "Brejo Santo", "capacidade": "3.500 famílias referenciadas" }, "geometry": { "type": "Point", "coordinates": [ -38.9798, -7.477623 ] } },
    { "type": "Feature", "properties": { "id": "43", "cod_ibge": "230710", "id_cras": "23071020500", "nome": "CRAS - CENTRO DE REFERÊNCIA DA ASSISTÊNCIA SOCIAL - CRAS II", "tipo": "Rua", "logradouro": "Vereador Jonas Mauricio", "numero": "0", "complemento": "", "bairro": "MORRO DO TETÉU", "referencia": "", "cep": "63290000", "municipio": "Jardim", "capacidade": "3.500 famílias referenciadas" }, "geometry": { "type": "Point", "coordinates": [ -39.279064, -7.588689 ] } },
    { "type": "Feature", "properties": { "id": "44", "cod_ibge": "231130", "id_cras": "23113039000", "nome": "CRAS - CENTRO DE REFERÊNCIA DA ASSISTÊNCIA SOCIAL BRUNA QUEIROZ", "tipo": "Avenida", "logradouro": "Norte Sul", "numero": "373", "complemento": "", "bairro": "Cedro", "referencia": "", "cep": "63900000", "municipio": "Quixadá", "capacidade": "5.000 famílias referenciadas" }, "geometry": { "type": "Point", "coordinates": [ -39.058799743652301, -4.96425388945636 ] } },
    { "type": "Feature", "properties": { "id": "45", "cod_ibge": "230195", "id_cras": "23019504100", "nome": "CRAS - CENTRO DE REFERENCIA DA ASSISTENCIA SOCIAL DE BARREIRA", "tipo": "Rua", "logradouro": "RUA CALOS NEMER", "numero": "300", "complemento": "", "bairro": "CONJUNTO SAO PEDRO - BOM SUCESSO", "referencia": "próximo ao posto de saúde do Bairro Bonsucesso", "cep": "62795000", "municipio": "Barreira", "capacidade": "2.500 famílias referenciadas" }, "geometry": { "type": "Point", "coordinates": [ -38.650165, -4.293217 ] } },
    { "type": "Feature", "properties": { "id": "46", "cod_ibge": "230300", "id_cras": "23030001700", "nome": "CRAS - CENTRO DE REFERENCIA DA ASSISTENCIA SOCIAL DE CARIDADE", "tipo": "Rua", "logradouro": "PADRE JOSE ANTONIO", "numero": "0", "complemento": "", "bairro": "CENTRO", "referencia": "PROXIMO DEPOSITO DE GAS", "cep": "62730000", "municipio": "Caridade", "capacidade": "3.500 famílias referenciadas" }, "geometry": { "type": "Point", "coordinates": [ -39.19299, -4.232 ] } },
    { "type": "Feature", "properties": { "id": "47", "cod_ibge": "230410", "id_cras": "23041001100", "nome": "CRAS - Centro de Referência da Assistência Social de Crateús\/CE - CRAS I", "tipo": "Rua", "logradouro": "Oscar Lopes", "numero": "0", "complemento": "", "bairro": "Fátima II", "referencia": "vizinho a Guarda Civil Municipal", "cep": "63700000", "municipio": "Crateús", "capacidade": "5.000 famílias referenciadas" }, "geometry": { "type": "Point", "coordinates": [ -40.671706, -5.187268 ] } },
    { "type": "Feature", "properties": { "id": "48", "cod_ibge": "230410", "id_cras": "23041001200", "nome": "CRAS - Centro de Referência da Assistência Social de Crateús\/CE - CRAS II", "tipo": "Rua", "logradouro": "Santa Rita", "numero": "100", "complemento": "", "bairro": "Venâncios", "referencia": "Próximo a Cozinha Comunitária de Crateús.", "cep": "63700000", "municipio": "Crateús", "capacidade": "5.000 famílias referenciadas" }, "geometry": { "type": "Point", "coordinates": [ -40.64966, -5.17832 ] } },
    { "type": "Feature", "properties": { "id": "49", "cod_ibge": "230410", "id_cras": "23041020300", "nome": "CRAS - Centro de Referência da Assistência Social de Crateús\/CE - CRAS III", "tipo": "Rua", "logradouro": "Gentil Cardoso", "numero": "165", "complemento": "Conjunto São José", "bairro": "Campo Velho", "referencia": "Próximo à Escola Índigena.", "cep": "63700000", "municipio": "Crateús", "capacidade": "5.000 famílias referenciadas" }, "geometry": { "type": "Point", "coordinates": [ -40.672614, -5.193183 ] } },
    { "type": "Feature", "properties": { "id": "50", "cod_ibge": "230770", "id_cras": "23077020700", "nome": "CRAS - CENTRO DE REFERENCIA DA ASSISTENCIA SOCIAL DO ITAPEBUÇU", "tipo": "Rua", "logradouro": "CAPITÃO JOSÉ MARQUES", "numero": "0", "complemento": "", "bairro": "ITAPEBUSSU", "referencia": "", "cep": "61988000", "municipio": "Maranguape", "capacidade": "5.000 famílias referenciadas" }, "geometry": { "type": "Point", "coordinates": [ -38.686, -3.89 ] } },
    { "type": "Feature", "properties": { "id": "51", "cod_ibge": "230655", "id_cras": "23065531700", "nome": "CRAS - Centro de Referência da Assistência Social Maria Conceição Ferreira Silva", "tipo": "Avenida", "logradouro": "RUA SEVERIANO CORREIA DE ANDRADE", "numero": "0", "complemento": "DISTRITO", "bairro": "ZONA RURAL", "referencia": "UBS ALMOFALA", "cep": "62590000", "municipio": "Itarema", "capacidade": "3.500 famílias referenciadas" }, "geometry": { "type": "Point", "coordinates": [ -39.830503, -2.938026 ] } },
    { "type": "Feature", "properties": { "id": "52", "cod_ibge": "230910", "id_cras": "23091006800", "nome": "CRAS - CENTRO DE REFERÊNCIA DA ASSISTENCIA SOCIAL MARIA MARTINS DE SOUZA", "tipo": "Rua", "logradouro": "CORONEL JUSTINO CAFE", "numero": "372", "complemento": "", "bairro": "CENTRO", "referencia": "", "cep": "62764000", "municipio": "Mulungu", "capacidade": "2.500 famílias referenciadas" }, "geometry": { "type": "Point", "coordinates": [ -38.99639, -4.306132 ] } },
    { "type": "Feature", "properties": { "id": "53", "cod_ibge": "231130", "id_cras": "23113002500", "nome": "CRAS - CENTRO DE REFERÊNCIA DA ASSISTÊNCIA SOCIAL RENASCER", "tipo": "Rua", "logradouro": "NOVA VIDA", "numero": "13", "complemento": "QUADRA 06", "bairro": "PLANALTO RENASCER", "referencia": "", "cep": "63910100", "municipio": "Quixadá", "capacidade": "5.000 famílias referenciadas" }, "geometry": { "type": "Point", "coordinates": [ -38.65195, -3.763475 ] } },
    { "type": "Feature", "properties": { "id": "54", "cod_ibge": "231135", "id_cras": "23113501700", "nome": "CRAS - CENTRO DE REFERÊNCIA DA ASSISTÊNCIA SOCIAL SEDE", "tipo": "Rua", "logradouro": "MARIA VITÓRIA", "numero": "10", "complemento": "", "bairro": "CENTRO", "referencia": "", "cep": "63515000", "municipio": "Quixelô", "capacidade": "2.500 famílias referenciadas" }, "geometry": { "type": "Point", "coordinates": [ -39.202, -6.254 ] } },
    { "type": "Feature", "properties": { "id": "55", "cod_ibge": "230075", "id_cras": "23007502400", "nome": "CRAS - Centro de Referência de Assistência Social", "tipo": "Rua", "logradouro": "Antonio Tomé", "numero": "0", "complemento": "Zona Urbana", "bairro": "Flores", "referencia": "Próximo Comercial Gobério", "cep": "62540000", "municipio": "Amontada", "capacidade": "3.500 famílias referenciadas" }, "geometry": { "type": "Point", "coordinates": [ -39.825898, -3.365068 ] } },
    { "type": "Feature", "properties": { "id": "56", "cod_ibge": "230080", "id_cras": "23008002300", "nome": "CRAS - Centro de Referência de Assistência Social", "tipo": "Rua", "logradouro": "ANANIAS DE MATOS ARRAIS", "numero": "250", "complemento": "Casa", "bairro": "Serraria I", "referencia": "Na saída para Assaré", "cep": "63570000", "municipio": "Antonina do Norte", "capacidade": "2.500 famílias referenciadas" }, "geometry": { "type": "Point", "coordinates": [ -39.98162, -6.773959 ] } },
    { "type": "Feature", "properties": { "id": "57", "cod_ibge": "230330", "id_cras": "23033020000", "nome": "CRAS - Centro de Referência de Assistência Social", "tipo": "Sítio", "logradouro": "Rua da Rodagem", "numero": "608", "complemento": "Zona Rural", "bairro": "CAIPU", "referencia": "Proximo a BR", "cep": "63530000", "municipio": "Cariús", "capacidade": "2.500 famílias referenciadas" }, "geometry": { "type": "Point", "coordinates": [ -39.49663, -6.535895 ] } },
    { "type": "Feature", "properties": { "id": "58", "cod_ibge": "231120", "id_cras": "23112002300", "nome": "CRAS - Centro de Referência de Assistência Social", "tipo": "Rua", "logradouro": "Antonio Guedes Neto", "numero": "122", "complemento": "CASA", "bairro": "CENTRO", "referencia": "Oficina de Alencar", "cep": "63160000", "municipio": "Potengi", "capacidade": "2.500 famílias referenciadas" }, "geometry": { "type": "Point", "coordinates": [ -40.030146, -7.092248 ] } },
    { "type": "Feature", "properties": { "id": "59", "cod_ibge": "230100", "id_cras": "23010020300", "nome": "CRAS - CENTRO DE REFERÊNCIA DE ASSISTÊNCIA SOCIAL - CAMARÁ", "tipo": "Rua", "logradouro": "JOSÉ AMORA MOREIRA", "numero": "0", "complemento": "", "bairro": "TELHA - CAMARÁ", "referencia": "", "cep": "61700000", "municipio": "Aquiraz", "capacidade": "5.000 famílias referenciadas" }, "geometry": { "type": "Point", "coordinates": [ -38.472102, -3.961206 ] } },
    { "type": "Feature", "properties": { "id": "60", "cod_ibge": "230445", "id_cras": "23044501100", "nome": "CRAS - CENTRO DE REFERÊNCIA DE ASSISTÊNCIA SOCIAL - CRAS", "tipo": "Avenida", "logradouro": "JOAQUIM CRISÓSTOMO", "numero": "1162", "complemento": "", "bairro": "CENTRO", "referencia": "PRÓXIMO AO FÓRUM.", "cep": "62815000", "municipio": "Fortim", "capacidade": "2.500 famílias referenciadas" }, "geometry": { "type": "Point", "coordinates": [ -37.797, -4.452 ] } },
    { "type": "Feature", "properties": { "id": "249", "cod_ibge": "231290", "id_cras": "23129002500", "nome": "CRAS Irmã Oswalda", "tipo": "Rua", "logradouro": "OLAVO BILAC", "numero": "0", "complemento": "", "bairro": "Alto da Brasília", "referencia": "prox CEI", "cep": "62040387", "municipio": "Sobral", "capacidade": "5.000 famílias referenciadas" }, "geometry": { "type": "Point", "coordinates": [ -40.341078, -3.674166 ] } },
    { "type": "Feature", "properties": { "id": "61", "cod_ibge": "230600", "id_cras": "23060004100", "nome": "CRAS - CENTRO DE REFERÊNCIA DE ASSISTENCIA SOCIAL - CRAS - CASA DAS FAMÍLIAS", "tipo": "Rua", "logradouro": "FRANCISCO ROQUE DE OLIVEIRA", "numero": "99", "complemento": "CASA", "bairro": "BEIRA RIO", "referencia": "VIZINHO AO INSS.", "cep": "62980000", "municipio": "Iracema", "capacidade": "2.500 famílias referenciadas" }, "geometry": { "type": "Point", "coordinates": [ -38.308674, -5.808148 ] } },
    { "type": "Feature", "properties": { "id": "62", "cod_ibge": "230190", "id_cras": "23019020200", "nome": "CRAS - Centro de Referência de Assistência Social - Malvinas", "tipo": "Rua", "logradouro": "T 14", "numero": "200", "complemento": "", "bairro": "Malvinas", "referencia": "", "cep": "63180000", "municipio": "Barbalha", "capacidade": "5.000 famílias referenciadas" }, "geometry": { "type": "Point", "coordinates": [ -39.302, -7.305 ] } },
    { "type": "Feature", "properties": { "id": "63", "cod_ibge": "230075", "id_cras": "23007520500", "nome": "CRAS - CENTRO DE REFERÊNCIA DE ASSISTÊNCIA SOCIAL - REGIÃO PRAIANA", "tipo": "Avenida", "logradouro": "Principal", "numero": "0", "complemento": "Zona Praiana", "bairro": "Distrito de Sabiaguaba", "referencia": "padaria do Lopim", "cep": "62540000", "municipio": "Amontada", "capacidade": "3.500 famílias referenciadas" }, "geometry": { "type": "Point", "coordinates": [ -39.56442, -3.0902 ] } },
    { "type": "Feature", "properties": { "id": "64", "cod_ibge": "230190", "id_cras": "23019002300", "nome": "CRAS - Centro de Referência de Assistência Social - Santo Antônio", "tipo": "Avenida", "logradouro": "General Costa Cavalcante", "numero": "0", "complemento": "", "bairro": "Centro", "referencia": "Fica próximo ao UBS Centro", "cep": "63180000", "municipio": "Barbalha", "capacidade": "5.000 famílias referenciadas" }, "geometry": { "type": "Point", "coordinates": [ -39.302, -7.305 ] } },
    { "type": "Feature", "properties": { "id": "65", "cod_ibge": "230120", "id_cras": "23012002300", "nome": "CRAS - CENTRO DE REFERÊNCIA DE ASSISTÊNCIA SOCIAL - SEDE", "tipo": "Avenida", "logradouro": "DA INDEPENDÊNCIA", "numero": "242", "complemento": "", "bairro": "CENTRO", "referencia": "ANTIGO PRÉDIO DO BANCO DO BRASIL", "cep": "62750000", "municipio": "Aracoiaba", "capacidade": "3.500 famílias referenciadas" }, "geometry": { "type": "Point", "coordinates": [ -38.810838, -4.369965 ] } },
    { "type": "Feature", "properties": { "id": "66", "cod_ibge": "231240", "id_cras": "23124003000", "nome": "CRAS - CENTRO DE REFERÊNCIA DE ASSISTÊNCIA SOCIAL -CRAS SEDE", "tipo": "Avenida", "logradouro": "CORONEL NECO MARTINS", "numero": "0", "complemento": "", "bairro": "ALTO DO BOM JESUS", "referencia": "ABC-SEDE", "cep": "62670000", "municipio": "São Gonçalo do Amarante", "capacidade": "5.000 famílias referenciadas" }, "geometry": { "type": "Point", "coordinates": [ -38.96768, -3.607808 ] } },
    { "type": "Feature", "properties": { "id": "67", "cod_ibge": "230480", "id_cras": "23048001600", "nome": "CRAS - CENTRO DE REFERÊNCIA DE ASSISTÊNCIA SOCIAL DE GRANJEIRO", "tipo": "Rua", "logradouro": "DO CRUZEIRO", "numero": "0", "complemento": "", "bairro": "CENTRO", "referencia": "PRÓXIMO AO CENTRO EDUCACIONAL ZULMIRA MARQUES", "cep": "63230000", "municipio": "Granjeiro", "capacidade": "2.500 famílias referenciadas" }, "geometry": { "type": "Point", "coordinates": [ -39.5755, -6.713709 ] } },
    { "type": "Feature", "properties": { "id": "68", "cod_ibge": "230620", "id_cras": "23062004100", "nome": "CRAS - Centro de Referência de Assistência Social de Itaiçaba", "tipo": "Rua", "logradouro": "AV. 31 DE MARÇO", "numero": "0", "complemento": "CONJUNTO PE ABILIO, S\/N", "bairro": "SAO FRANCISCO", "referencia": "PRÓXIMO AO CENTRO CULTURAL", "cep": "62820000", "municipio": "Itaiçaba", "capacidade": "2.500 famílias referenciadas" }, "geometry": { "type": "Point", "coordinates": [ -37.825456, -4.682657 ] } },
    { "type": "Feature", "properties": { "id": "69", "cod_ibge": "230725", "id_cras": "23072504100", "nome": "CRAS - CENTRO DE REFERÊNCIA DE ASSISTÊNCIA SOCIAL DE JIJOCA DE JERICOACOARA", "tipo": "Rua", "logradouro": "José Josafá", "numero": "0", "complemento": "", "bairro": "CENTRO", "referencia": "Entrada da cidade", "cep": "62598000", "municipio": "Jijoca de Jericoacoara", "capacidade": "2.500 famílias referenciadas" }, "geometry": { "type": "Point", "coordinates": [ -40.443442, -2.904875 ] } },
    { "type": "Feature", "properties": { "id": "70", "cod_ibge": "230655", "id_cras": "23065503300", "nome": "CRAS - Centro de Referência de Assistência Social Fátima Maria Galdino Facundo", "tipo": "Rua", "logradouro": "MANOEL CARNEIRO DE COUTO", "numero": "0", "complemento": "", "bairro": "GARGOE", "referencia": "PX IGREJA CATÓLICA SÃO JOÃO BATISTA", "cep": "62590000", "municipio": "Itarema", "capacidade": "3.500 famílias referenciadas" }, "geometry": { "type": "Point", "coordinates": [ -39.911442, -2.942869 ] } },
    { "type": "Feature", "properties": { "id": "71", "cod_ibge": "231150", "id_cras": "23115020300", "nome": "CRAS - CENTRO DE REFERENCIA DE ASSISTENCIA SOCIAL LAGOINHA", "tipo": "Rua", "logradouro": "VICENTE ROSA", "numero": "0", "complemento": "", "bairro": "LAGOINHA", "referencia": "ANTIGA CRECHE MARIA SUZILANE", "cep": "62920000", "municipio": "Quixeré", "capacidade": "2.500 famílias referenciadas" }, "geometry": { "type": "Point", "coordinates": [ -37.91447, -5.081561 ] } },
    { "type": "Feature", "properties": { "id": "72", "cod_ibge": "231150", "id_cras": "23115001700", "nome": "CRAS - CENTRO DE REFERÊNCIA DE ASSISTÊNCIA SOCIAL SEDE", "tipo": "Rua", "logradouro": "PADRE JOAQUIM DE MENEZES", "numero": "0", "complemento": "", "bairro": "CENTRO", "referencia": "ANTIGO CENTRO DE CONVIVÊNCIA DO IDOSO", "cep": "62920000", "municipio": "Quixeré", "capacidade": "2.500 famílias referenciadas" }, "geometry": { "type": "Point", "coordinates": [ -37.987469, -5.068641 ] } },
    { "type": "Feature", "properties": { "id": "73", "cod_ibge": "231320", "id_cras": "23132002800", "nome": "CRAS - CENTRO DE REFERÊNCIA DE ASSISTÊNCIA SOCIAL-CRAS SUCESSO", "tipo": "Rua", "logradouro": "JOÃO JOSÉ DE CASTRO", "numero": "564", "complemento": "", "bairro": "SUCESSO", "referencia": "PROXIMO A IGREJA", "cep": "63750000", "municipio": "Tamboril", "capacidade": "3.500 famílias referenciadas" }, "geometry": { "type": "Point", "coordinates": [ -40.321, -4.832 ] } },
    { "type": "Feature", "properties": { "id": "74", "cod_ibge": "230950", "id_cras": "23095003300", "nome": "CRAS - DONA DAZINHA", "tipo": "Rua", "logradouro": "RUA DO CAMPO", "numero": "0", "complemento": "", "bairro": "SÃO GERALDO", "referencia": "", "cep": "63520000", "municipio": "Orós", "capacidade": "3.500 famílias referenciadas" }, "geometry": { "type": "Point", "coordinates": [ -38.916246, -6.235517 ] } },
    { "type": "Feature", "properties": { "id": "75", "cod_ibge": "231170", "id_cras": "23117020500", "nome": "CRAS - DONA MIMOSA PINTO", "tipo": "Praça", "logradouro": "DA ESTAÇÃO", "numero": "0", "complemento": "AMANAIARA", "bairro": "CENTRO", "referencia": "", "cep": "62260000", "municipio": "Reriutaba", "capacidade": "2.500 famílias referenciadas" }, "geometry": { "type": "Point", "coordinates": [ -40.526601, -4.06481 ] } },
    { "type": "Feature", "properties": { "id": "76", "cod_ibge": "231040", "id_cras": "23104001100", "nome": "CRAS - Dra.Gardênia di Morais Cavalcanti", "tipo": "Rua", "logradouro": "Aramis Paiva", "numero": "482", "complemento": "", "bairro": "Centro", "referencia": "Ao lado do PSF Sede.", "cep": "62736000", "municipio": "Paramoti", "capacidade": "2.500 famílias referenciadas" }, "geometry": { "type": "Point", "coordinates": [ -39.239, -4.097 ] } },
    { "type": "Feature", "properties": { "id": "77", "cod_ibge": "230427", "id_cras": "23042709500", "nome": "CRAS - ERERÉ", "tipo": "Rua", "logradouro": "CAPITÃO DAMIÃO PORTO", "numero": "515", "complemento": "", "bairro": "FRANCISCO NOGUEIRA", "referencia": "", "cep": "63470000", "municipio": "Ererê", "capacidade": "2.500 famílias referenciadas" }, "geometry": { "type": "Point", "coordinates": [ -38.34805, -6.030267 ] } },
    { "type": "Feature", "properties": { "id": "78", "cod_ibge": "230430", "id_cras": "23043020400", "nome": "CRAS - Francisco Bezerra da Silva", "tipo": "Distrito", "logradouro": "Ladislau Pereira", "numero": "1", "complemento": "", "bairro": "QUINCUNCA", "referencia": "No Incio do Distrito", "cep": "63185000", "municipio": "Farias Brito", "capacidade": "2.500 famílias referenciadas" }, "geometry": { "type": "Point", "coordinates": [ -39.61442, -6.871264 ] } },
    { "type": "Feature", "properties": { "id": "79", "cod_ibge": "230430", "id_cras": "23043004200", "nome": "CRAS - Josefa Epifânio de Sousa", "tipo": "Rua", "logradouro": "Rua Elpidio Ricardo", "numero": "90", "complemento": "", "bairro": "Centro", "referencia": "Fica localizado no antigo Centro Social Urbano", "cep": "63185000", "municipio": "Farias Brito", "capacidade": "2.500 famílias referenciadas" }, "geometry": { "type": "Point", "coordinates": [ -39.570163, -6.92641 ] } },
    { "type": "Feature", "properties": { "id": "80", "cod_ibge": "230270", "id_cras": "23027002700", "nome": "CRAS - Luisa Laurinda de Souza", "tipo": "Rua", "logradouro": "JOSÉ ALVES", "numero": "0", "complemento": "", "bairro": "ALTO ALEGRE", "referencia": "PRÓXIMO A POLI CLINICA E ASSOCIAÇÃO CONSELHO DE PAIS.", "cep": "63150000", "municipio": "Campos Sales", "capacidade": "3.500 famílias referenciadas" }, "geometry": { "type": "Point", "coordinates": [ -40.374, -7.074268 ] } },
    { "type": "Feature", "properties": { "id": "81", "cod_ibge": "230426", "id_cras": "23042602400", "nome": "CRAS - MARIA CREUZA PINHEIRO", "tipo": "Rua", "logradouro": "Francisco Alves Bezerra", "numero": "154", "complemento": "", "bairro": "NOVO IRAPUAN", "referencia": "PRÓXIMO A CRECHE TALITA ANDRADE PINHEIRO", "cep": "63645000", "municipio": "Deputado Irapuan Pinheiro", "capacidade": "2.500 famílias referenciadas" }, "geometry": { "type": "Point", "coordinates": [ -39.264786, -5.914046 ] } },
    { "type": "Feature", "properties": { "id": "82", "cod_ibge": "230320", "id_cras": "23032020400", "nome": "CRAS - Mestre Neco", "tipo": "Rua", "logradouro": "CARLOS MORAIS", "numero": "0", "complemento": "", "bairro": "MESTRE NECO", "referencia": "Em Frente a Praça Nossa Senhora de Fátima", "cep": "63220000", "municipio": "Caririaçu", "capacidade": "3.500 famílias referenciadas" }, "geometry": { "type": "Point", "coordinates": [ -39.280586, -7.040523 ] } },
    { "type": "Feature", "properties": { "id": "83", "cod_ibge": "230270", "id_cras": "23027039300", "nome": "CRAS - Miguel Cortez", "tipo": "Rua", "logradouro": "Conjunto Lindalva Lima Martins", "numero": "0", "complemento": "", "bairro": "Poço", "referencia": "", "cep": "63150000", "municipio": "Campos Sales", "capacidade": "3.500 famílias referenciadas" }, "geometry": { "type": "Point", "coordinates": [ -40.373227000236497, -7.08517277499528 ] } },
    { "type": "Feature", "properties": { "id": "84", "cod_ibge": "231170", "id_cras": "23117004200", "nome": "CRAS - PREFEITO DOUTOR JOSE DE SÁ", "tipo": "Rua", "logradouro": "CORONEL JOSE TEODORO SOARES", "numero": "0", "complemento": "", "bairro": "CENTRO", "referencia": "", "cep": "62260000", "municipio": "Reriutaba", "capacidade": "2.500 famílias referenciadas" }, "geometry": { "type": "Point", "coordinates": [ -40.582, -4.142 ] } },
    { "type": "Feature", "properties": { "id": "85", "cod_ibge": "230393", "id_cras": "23039302400", "nome": "CRAS - Sebastião Inacio dos Anjos", "tipo": "Rua", "logradouro": "Heldir Baltazar de Queiroz", "numero": "241", "complemento": "", "bairro": "Cidade Nova", "referencia": "Fórum Dr. Roberto de Queiroz e Escola de Ensino Médio Emanuel", "cep": "63950000", "municipio": "Choró", "capacidade": "2.500 famílias referenciadas" }, "geometry": { "type": "Point", "coordinates": [ -39.133535, -4.852931 ] } },
    { "type": "Feature", "properties": { "id": "86", "cod_ibge": "230650", "id_cras": "23065034000", "nome": "CRAS - SEDE-ITAPIÚNA", "tipo": "Rua", "logradouro": "Cosmo Santos", "numero": "0", "complemento": "", "bairro": "Planalto", "referencia": "vizinho ao CAPS", "cep": "62740000", "municipio": "Itapiúna", "capacidade": "2.500 famílias referenciadas" }, "geometry": { "type": "Point", "coordinates": [ -38.917308, -4.558394 ] } },
    { "type": "Feature", "properties": { "id": "87", "cod_ibge": "231060", "id_cras": "23106004000", "nome": "CRAS - Wiron Silva Pereira", "tipo": "Rua", "logradouro": "Maria de Fátima Santana do Nascimento", "numero": "1", "complemento": "", "bairro": "Mãe Maria", "referencia": "Creche Pedro Leandro", "cep": "63280000", "municipio": "Penaforte", "capacidade": "2.500 famílias referenciadas" }, "geometry": { "type": "Point", "coordinates": [ -39.073327, -7.828542 ] } },
    { "type": "Feature", "properties": { "id": "88", "cod_ibge": "230380", "id_cras": "23038020000", "nome": "CRAS -2 CENTRO DE REFERENCIA DA ASSISTÊNCIA SOCIAL", "tipo": "Rua", "logradouro": "General Tibúrcio", "numero": "28", "complemento": "", "bairro": "CENTRO", "referencia": "", "cep": "63400000", "municipio": "Cedro", "capacidade": "3.500 famílias referenciadas" }, "geometry": { "type": "Point", "coordinates": [ -39.059315, -6.608584 ] } },
    { "type": "Feature", "properties": { "id": "89", "cod_ibge": "230770", "id_cras": "23077020600", "nome": "CRAS -CENTRO DE REFERENCIA DA ASSISTENCIA SOCIAL DO AMANARÍ", "tipo": "Rua", "logradouro": "VIRGILIO DE ANDRADE", "numero": "36", "complemento": "", "bairro": "SÃO JOÃO DO AMANARI", "referencia": "", "cep": "61979000", "municipio": "Maranguape", "capacidade": "5.000 famílias referenciadas" }, "geometry": { "type": "Point", "coordinates": [ -38.686, -3.89 ] } },
    { "type": "Feature", "properties": { "id": "123", "cod_ibge": "231380", "id_cras": "23138002400", "nome": "CRAS ÁUREA TOMÉ CORDEIRO", "tipo": "Rua", "logradouro": "AVENIDA JOSÉ LOPES CABRAL", "numero": "212", "complemento": "", "bairro": "CENTRO", "referencia": "PRÓXIMO A ESCOLA MATILDE R.VASCONCELOS", "cep": "62650000", "municipio": "Uruburetama", "capacidade": "2.500 famílias referenciadas" }, "geometry": { "type": "Point", "coordinates": [ -39.508, -3.625 ] } },
    { "type": "Feature", "properties": { "id": "90", "cod_ibge": "230460", "id_cras": "23046002100", "nome": "CRAS -CENTRO DE REFERENCIA DA ASSISTENCIA SOCIAL RAIMUNDA ALVES DA SILVA", "tipo": "Avenida", "logradouro": "JOSÉ SEVERINO FILHO", "numero": "261", "complemento": "", "bairro": "SAGRADO CORAÇÃO DE JESUS", "referencia": "PRÓXIMO A PREFEITURA e A ESCOLA MUNICIPAL ARINDA LOBO", "cep": "62738000", "municipio": "General Sampaio", "capacidade": "2.500 famílias referenciadas" }, "geometry": { "type": "Point", "coordinates": [ -39.450824, -4.051566 ] } },
    { "type": "Feature", "properties": { "id": "91", "cod_ibge": "230230", "id_cras": "23023003300", "nome": "CRAS (CENTRO DE REFERÊNCIA DE ASSISTÊNCIA SOCIAL", "tipo": "Rua", "logradouro": "Coronel Duca", "numero": "0", "complemento": "-", "bairro": "Chapadinha", "referencia": "Próximo a Escola Profissionalizante Júlio França", "cep": "62570000", "municipio": "Bela Cruz", "capacidade": "3.500 famílias referenciadas" }, "geometry": { "type": "Point", "coordinates": [ -40.169706, -3.057768 ] } },
    { "type": "Feature", "properties": { "id": "92", "cod_ibge": "231140", "id_cras": "23114002200", "nome": "CRAS 1", "tipo": "Rua", "logradouro": "RUA JORGE BORGES", "numero": "545", "complemento": "", "bairro": "MARAVILHA", "referencia": "", "cep": "63800000", "municipio": "Quixeramobim", "capacidade": "5.000 famílias referenciadas" }, "geometry": { "type": "Point", "coordinates": [ -39.297752, -5.204024 ] } },
    { "type": "Feature", "properties": { "id": "93", "cod_ibge": "230580", "id_cras": "23058003800", "nome": "CRAS 1 - ALTO DOS QUATORZE", "tipo": "Rua", "logradouro": "DR FELIX CÂNDIDO", "numero": "697", "complemento": "", "bairro": "ALTO DOS QUATORZE", "referencia": "", "cep": "62250000", "municipio": "Ipu", "capacidade": "3.500 famílias referenciadas" }, "geometry": { "type": "Point", "coordinates": [ -40.716416, -4.332022 ] } },
    { "type": "Feature", "properties": { "id": "94", "cod_ibge": "230380", "id_cras": "23038004000", "nome": "CRAS 1 - CENTRO DE REFERÊNCIA DA ASSISTÊNCIA SOCIAL", "tipo": "Rua", "logradouro": "Joaquim Ferreira da Silva", "numero": "12", "complemento": "", "bairro": "FATIMA", "referencia": "Proximo a Cicero Teixeira.", "cep": "63400000", "municipio": "Cedro", "capacidade": "3.500 famílias referenciadas" }, "geometry": { "type": "Point", "coordinates": [ -39.062877, -6.603639 ] } },
    { "type": "Feature", "properties": { "id": "95", "cod_ibge": "231140", "id_cras": "23114020600", "nome": "CRAS 2", "tipo": "Rua", "logradouro": "JOÃO TERTULINO", "numero": "122", "complemento": "", "bairro": "ANTONIO CISNANDO", "referencia": "", "cep": "63800000", "municipio": "Quixeramobim", "capacidade": "5.000 famílias referenciadas" }, "geometry": { "type": "Point", "coordinates": [ -39.284486, -5.200533 ] } },
    { "type": "Feature", "properties": { "id": "96", "cod_ibge": "230580", "id_cras": "23058031800", "nome": "CRAS 2 - MARIA DO SOCORRO MESQUITA MARTINS", "tipo": "Rua", "logradouro": "DONA JOANA MIMOSA", "numero": "239", "complemento": "", "bairro": "NOVA ALDEOTA", "referencia": "PROXIMO AO HOSPITAL MONSENHOR MORAES.", "cep": "62250000", "municipio": "Ipu", "capacidade": "3.500 famílias referenciadas" }, "geometry": { "type": "Point", "coordinates": [ -40.710547, -4.317697 ] } },
    { "type": "Feature", "properties": { "id": "97", "cod_ibge": "231140", "id_cras": "23114020600", "nome": "CRAS 3", "tipo": "Rua", "logradouro": "ANTONIO FURTADO", "numero": "10", "complemento": "", "bairro": "MONTEIRO DE MORAIS", "referencia": "", "cep": "63800000", "municipio": "Quixeramobim", "capacidade": "5.000 famílias referenciadas" }, "geometry": { "type": "Point", "coordinates": [ -39.302454, -5.189445 ] } },
    { "type": "Feature", "properties": { "id": "98", "cod_ibge": "230550", "id_cras": "23055001700", "nome": "CRAS AGUIMAR MENDONÇA", "tipo": "Rua", "logradouro": "VIGORVINO MANOEL LEITE", "numero": "3", "complemento": "", "bairro": "VILA MOURA", "referencia": "Ao lado do PSF", "cep": "63503300", "municipio": "Iguatu", "capacidade": "5.000 famílias referenciadas" }, "geometry": { "type": "Point", "coordinates": [ -39.28899, -6.370324 ] } },
    { "type": "Feature", "properties": { "id": "99", "cod_ibge": "230450", "id_cras": "23045003400", "nome": "CRAS ALDENI PONTES SOUZA", "tipo": "Rua", "logradouro": "SANTA LUZIA", "numero": "0", "complemento": "", "bairro": "LAPA", "referencia": "", "cep": "62340000", "municipio": "Frecheirinha", "capacidade": "2.500 famílias referenciadas" }, "geometry": { "type": "Point", "coordinates": [ -40.818383, -3.755951 ] } },
    { "type": "Feature", "properties": { "id": "100", "cod_ibge": "230765", "id_cras": "23076501600", "nome": "CRAS ALTO ALEGRE", "tipo": "Rua", "logradouro": "Tabajara", "numero": "1500", "complemento": "", "bairro": "Alto Alegre II", "referencia": "", "cep": "61921455", "municipio": "Maracanaú", "capacidade": "5.000 famílias referenciadas" }, "geometry": { "type": "Point", "coordinates": [ -38.601419, -3.833486 ] } },
    { "type": "Feature", "properties": { "id": "101", "cod_ibge": "231390", "id_cras": "23139004100", "nome": "CRAS ANA GARCÊS ROCHA", "tipo": "Avenida", "logradouro": "ANTONIO MOREIRA", "numero": "639", "complemento": "", "bairro": "CENTRO", "referencia": "", "cep": "62460000", "municipio": "Uruoca", "capacidade": "2.500 famílias referenciadas" }, "geometry": { "type": "Point", "coordinates": [ -40.558991, -3.314904 ] } },
    { "type": "Feature", "properties": { "id": "102", "cod_ibge": "230970", "id_cras": "23097001200", "nome": "CRAS ANA GOMES DA SILVA", "tipo": "Rua", "logradouro": "13", "numero": "245", "complemento": "", "bairro": "Conjunto Carlos Jereissati III", "referencia": "", "cep": "61800000", "municipio": "Pacatuba", "capacidade": "5.000 famílias referenciadas" }, "geometry": { "type": "Point", "coordinates": [ -38.616385, -3.889966 ] } },
    { "type": "Feature", "properties": { "id": "103", "cod_ibge": "230520", "id_cras": "23052034200", "nome": "CRAS ANASTÁCIO BEZERRA VIANA", "tipo": "Rua", "logradouro": "Maria Torres de Freitas", "numero": "0", "complemento": "", "bairro": "IRAJÁ", "referencia": "", "cep": "62270000", "municipio": "Hidrolândia", "capacidade": "2.500 famílias referenciadas" }, "geometry": { "type": "Point", "coordinates": [ -40.467453, -4.359933 ] } },
    { "type": "Feature", "properties": { "id": "104", "cod_ibge": "230625", "id_cras": "23062520600", "nome": "CRAS ANGORÁ", "tipo": "Rua", "logradouro": "RUA VALDEBERTO ALBUQUERQUE", "numero": "2", "complemento": "", "bairro": "ANGORÁ", "referencia": "", "cep": "61880000", "municipio": "Itaitinga", "capacidade": "2.500 famílias referenciadas" }, "geometry": { "type": "Point", "coordinates": [ -38.54388, -3.972833 ] } },
    { "type": "Feature", "properties": { "id": "105", "cod_ibge": "230523", "id_cras": "23052338600", "nome": "CRAS ANINGAS", "tipo": "Rua", "logradouro": "PEDRO FELÍCIO", "numero": "0", "complemento": "", "bairro": "CANAVIEIRA DOS PINHEIROS", "referencia": "", "cep": "62880000", "municipio": "Horizonte", "capacidade": "5.000 famílias referenciadas" }, "geometry": { "type": "Point", "coordinates": [ -38.428201, -4.098381 ] } },
    { "type": "Feature", "properties": { "id": "106", "cod_ibge": "230310", "id_cras": "23031033600", "nome": "CRAS ANTONIA MARIA DOS PRAZERES ROCHA-ZONA RURAL", "tipo": "Rua", "logradouro": "APRIGIO SOARES", "numero": "0", "complemento": "", "bairro": "DISTRITO DE TAPUIO", "referencia": "proximo a igreja na localidade de Tapuio.", "cep": "62184000", "municipio": "Cariré", "capacidade": "2.500 famílias referenciadas" }, "geometry": { "type": "Point", "coordinates": [ -40.460243, -4.049892 ] } },
    { "type": "Feature", "properties": { "id": "107", "cod_ibge": "230440", "id_cras": "23044037700", "nome": "CRAS ANTÔNIO BEZERRA", "tipo": "Rua", "logradouro": "CÂNDIDO MAIA", "numero": "245", "complemento": "", "bairro": "ANTÔNIO BEZERRA", "referencia": "Hospital Frotinha Antônio Bezerra", "cep": "60356830", "municipio": "Fortaleza", "capacidade": "5.000 famílias referenciadas" }, "geometry": { "type": "Point", "coordinates": [ -38.59033, -3.737542 ] } },
    { "type": "Feature", "properties": { "id": "108", "cod_ibge": "230550", "id_cras": "23055001700", "nome": "CRAS ANTONIO BEZERRA DE MELO", "tipo": "Rua", "logradouro": "12 de Outubro, s\/n", "numero": "22", "complemento": "", "bairro": "Paraná", "referencia": "Por trás do antigo tiro de guerra", "cep": "63500000", "municipio": "Iguatu", "capacidade": "5.000 famílias referenciadas" }, "geometry": { "type": "Point", "coordinates": [ -39.298503, -6.348973 ] } },
    { "type": "Feature", "properties": { "id": "109", "cod_ibge": "230465", "id_cras": "23046520100", "nome": "CRAS ANTONIO COSME DE LIMA", "tipo": "Rua", "logradouro": "MARIANO SARAIVA", "numero": "0", "complemento": "S\/N", "bairro": "ZONA RURAL", "referencia": "", "cep": "62365000", "municipio": "Graça", "capacidade": "2.500 famílias referenciadas" }, "geometry": { "type": "Point", "coordinates": [ -40.8244, -4.085577 ] } },
    { "type": "Feature", "properties": { "id": "110", "cod_ibge": "231160", "id_cras": "23116015400", "nome": "CRAS ANTONIO DIOGO", "tipo": "Rua", "logradouro": "TEREZA CRISTINA", "numero": "339", "complemento": "", "bairro": "ANTÔNIO DIOGO", "referencia": "Em frente a antiga Maternidade", "cep": "62791000", "municipio": "Redenção", "capacidade": "3.500 famílias referenciadas" }, "geometry": { "type": "Point", "coordinates": [ -38.741765, -4.314771 ] } },
    { "type": "Feature", "properties": { "id": "111", "cod_ibge": "230945", "id_cras": "23094502300", "nome": "CRAS Antônio Elizio Sinezio da Silva (Serragem)", "tipo": "Estrada", "logradouro": "DO ALGODÃO", "numero": "0", "complemento": "BAIXA DO MIGUEL", "bairro": "SERRAGEM", "referencia": "", "cep": "62755000", "municipio": "Ocara", "capacidade": "3.500 famílias referenciadas" }, "geometry": { "type": "Point", "coordinates": [ -38.508668, -4.441232 ] } },
    { "type": "Feature", "properties": { "id": "112", "cod_ibge": "230370", "id_cras": "23037020700", "nome": "CRAS ANTONIO FAÇANHA DE MENEZES - GRILO", "tipo": "Rua", "logradouro": "Júlia da Silva Oliveira", "numero": "852", "complemento": "", "bairro": "GRILO", "referencia": "Escola Municipal Maria das Dores", "cep": "61600000", "municipio": "Caucaia", "capacidade": "5.000 famílias referenciadas" }, "geometry": { "type": "Point", "coordinates": [ -38.66579, -3.726748 ] } },
    { "type": "Feature", "properties": { "id": "113", "cod_ibge": "231230", "id_cras": "23123004200", "nome": "CRAS ANTONIO FURTADO", "tipo": "Avenida", "logradouro": "Tabajara", "numero": "1500", "complemento": "", "bairro": "Monsenhor Otalicio", "referencia": "Forum Estadual", "cep": "62370000", "municipio": "São Benedito", "capacidade": "2.500 famílias referenciadas" }, "geometry": { "type": "Point", "coordinates": [ -40.863181, -4.032668 ] } },
    { "type": "Feature", "properties": { "id": "114", "cod_ibge": "230890", "id_cras": "23089004100", "nome": "CRAS ANTÔNIO HERMILDE SOARES", "tipo": "Avenida", "logradouro": "Coração de Maria", "numero": "0", "complemento": "", "bairro": "São Luís", "referencia": "", "cep": "62550000", "municipio": "Morrinhos", "capacidade": "3.500 famílias referenciadas" }, "geometry": { "type": "Point", "coordinates": [ -40.012221637547299, -3.316488553188572 ] } },
    { "type": "Feature", "properties": { "id": "115", "cod_ibge": "230765", "id_cras": "23076501600", "nome": "CRAS ANTONIO JUSTA", "tipo": "Rua", "logradouro": "Samuel Uchôa", "numero": "0", "complemento": "S\/N", "bairro": "Colônia antônio Justa", "referencia": "", "cep": "61903060", "municipio": "Maracanaú", "capacidade": "5.000 famílias referenciadas" }, "geometry": { "type": "Point", "coordinates": [ -38.641866, -3.882976 ] } },
    { "type": "Feature", "properties": { "id": "116", "cod_ibge": "230423", "id_cras": "23042304200", "nome": "CRAS ANTONIO MATHEUS NUNES DE CARVALHO", "tipo": "Rua", "logradouro": "MANOEL BRAGA", "numero": "754", "complemento": "", "bairro": "CAROBA", "referencia": "PRÓXIMO A ESCOLA DOM TIMÓTEO", "cep": "62390000", "municipio": "Croatá", "capacidade": "2.500 famílias referenciadas" }, "geometry": { "type": "Point", "coordinates": [ -40.90068, -4.413356 ] } },
    { "type": "Feature", "properties": { "id": "117", "cod_ibge": "230160", "id_cras": "23016002300", "nome": "CRAS ANTÔNIO OSVALDO ALVES TEIXEIRA", "tipo": "Rua", "logradouro": "RUA MAESTRO JOSINO ROBERTO", "numero": "259", "complemento": "", "bairro": "CENTRO", "referencia": "PRÓXIMO A RODOVIÁRIA", "cep": "63140000", "municipio": "Assaré", "capacidade": "3.500 famílias referenciadas" }, "geometry": { "type": "Point", "coordinates": [ -39.8692, -6.8673 ] } },
    { "type": "Feature", "properties": { "id": "118", "cod_ibge": "230820", "id_cras": "23082020000", "nome": "CRAS ANTÔNIO SABINO DE ALCÂNTARAS - BEM ME QUER", "tipo": "Avenida", "logradouro": "Pedro Sampaio", "numero": "0", "complemento": "antiga Casa da  Juventude", "bairro": "Centro", "referencia": "vizinho a Prefeitura", "cep": "62130000", "municipio": "Meruoca", "capacidade": "2.500 famílias referenciadas" }, "geometry": { "type": "Point", "coordinates": [ -40.45578, -3.542934 ] } },
    { "type": "Feature", "properties": { "id": "119", "cod_ibge": "230570", "id_cras": "23057003300", "nome": "CRAS ANTONIO SARAIVA DE ARAÚJO", "tipo": "Travessa", "logradouro": "BECO DO CUSTÓDIO", "numero": "0", "complemento": "", "bairro": "CENTRO", "referencia": "AO LADO DA SECRETARIA DE ASSISTÊNCIA SOCIAL", "cep": "63340000", "municipio": "Ipaumirim", "capacidade": "2.500 famílias referenciadas" }, "geometry": { "type": "Point", "coordinates": [ -38.717322, -6.787864 ] } },
    { "type": "Feature", "properties": { "id": "120", "cod_ibge": "230440", "id_cras": "23044014800", "nome": "CRAS ARACAPÉ", "tipo": "Rua", "logradouro": "Poliana", "numero": "0", "complemento": "", "bairro": "Aracapé", "referencia": "Por trás da escola João Hildo.", "cep": "60765450", "municipio": "Fortaleza", "capacidade": "5.000 famílias referenciadas" }, "geometry": { "type": "Point", "coordinates": [ -38.550245, -3.833455 ] } },
    { "type": "Feature", "properties": { "id": "121", "cod_ibge": "230040", "id_cras": "23004001100", "nome": "CRAS ARMANDO ARRAES FEITOSA", "tipo": "Rua", "logradouro": "RUA ARMANDO ARRAES FEITOSA", "numero": "90", "complemento": "", "bairro": "BOA VISTA", "referencia": "", "cep": "63575000", "municipio": "Aiuaba", "capacidade": "2.500 famílias referenciadas" }, "geometry": { "type": "Point", "coordinates": [ -40.1224, -6.5684 ] } },
    { "type": "Feature", "properties": { "id": "122", "cod_ibge": "230150", "id_cras": "23015001800", "nome": "CRAS ARNEIROZ", "tipo": "Rua", "logradouro": "ANTONIO LOUREIRO LINO", "numero": "49", "complemento": "", "bairro": "CENTRO", "referencia": "", "cep": "63670000", "municipio": "Arneiroz", "capacidade": "2.500 famílias referenciadas" }, "geometry": { "type": "Point", "coordinates": [ -40.160007, -6.322592 ] } },
    { "type": "Feature", "properties": { "id": "124", "cod_ibge": "230830", "id_cras": "23083020300", "nome": "CRAS BAIRRO PADRE CICERO", "tipo": "Distrito", "logradouro": "RODOVIA SANTOS DUMONT - BR 116 - KM 485", "numero": "23", "complemento": "", "bairro": "PADRE CICERO", "referencia": "", "cep": "63250000", "municipio": "Milagres", "capacidade": "3.500 famílias referenciadas" }, "geometry": { "type": "Point", "coordinates": [ -38.938508, -7.319882 ] } },
    { "type": "Feature", "properties": { "id": "125", "cod_ibge": "230440", "id_cras": "23044002300", "nome": "CRAS BARRA DO CEARÁ", "tipo": "Rua", "logradouro": "CÂNDIDO CASTELO BRANCO", "numero": "0", "complemento": "", "bairro": "BARRA DO CEARÁ", "referencia": "EM FRENTE A GRENDENE", "cep": "60331190", "municipio": "Fortaleza", "capacidade": "5.000 famílias referenciadas" }, "geometry": { "type": "Point", "coordinates": [ -38.57996, -3.708373 ] } },
    { "type": "Feature", "properties": { "id": "126", "cod_ibge": "230200", "id_cras": "23020004200", "nome": "CRAS BARRO", "tipo": "Rua", "logradouro": "JUSTINO ALVES FEITOSA", "numero": "335", "complemento": "", "bairro": "CENTRO", "referencia": "", "cep": "63380000", "municipio": "Barro", "capacidade": "3.500 famílias referenciadas" }, "geometry": { "type": "Point", "coordinates": [ -38.782, -7.177 ] } },
    { "type": "Feature", "properties": { "id": "127", "cod_ibge": "230625", "id_cras": "23062502300", "nome": "CRAS BARROCÃO \/ JABUTI", "tipo": "Rua", "logradouro": "F", "numero": "461", "complemento": "", "bairro": "PARQUE DOM PEDRO", "referencia": "PRÓXIMO AO CETEM.", "cep": "61880000", "municipio": "Itaitinga", "capacidade": "2.500 famílias referenciadas" }, "geometry": { "type": "Point", "coordinates": [ -38.529224, -3.966283 ] } },
    { "type": "Feature", "properties": { "id": "128", "cod_ibge": "230440", "id_cras": "23044003000", "nome": "CRAS BELA VISTA", "tipo": "Rua", "logradouro": "MÁRIO DE ANDRADE", "numero": "496", "complemento": "", "bairro": "BELA VISTA", "referencia": "próximo ao Mercado da Bela Vista", "cep": "60422140", "municipio": "Fortaleza", "capacidade": "5.000 famílias referenciadas" }, "geometry": { "type": "Point", "coordinates": [ -38.56373, -3.751898 ] } },
    { "type": "Feature", "properties": { "id": "129", "cod_ibge": "231340", "id_cras": "23134037700", "nome": "CRAS BELA VISTA", "tipo": "Distrito", "logradouro": "BELA VISTA", "numero": "0", "complemento": "", "bairro": "ZONA RURAL", "referencia": "", "cep": "62320000", "municipio": "Tianguá", "capacidade": "5.000 famílias referenciadas" }, "geometry": { "type": "Point", "coordinates": [ -40.9183, -3.658405 ] } },
    { "type": "Feature", "properties": { "id": "130", "cod_ibge": "230440", "id_cras": "23044003000", "nome": "CRAS BOM JARDIM", "tipo": "Rua", "logradouro": "CORONEL JOÃO CORREIA", "numero": "2023", "complemento": "", "bairro": "GRANJA LISBOA", "referencia": "IGREJA SANTA CECÍLIA", "cep": "60540285", "municipio": "Fortaleza", "capacidade": "5.000 famílias referenciadas" }, "geometry": { "type": "Point", "coordinates": [ -38.61046, -3.790012 ] } },
    { "type": "Feature", "properties": { "id": "131", "cod_ibge": "231180", "id_cras": "23118001100", "nome": "CRAS BUSCANDO TRANSFORMAÇÃO SOCIAL", "tipo": "Rua", "logradouro": "DR. DALTRO HOLANDA", "numero": "0", "complemento": "", "bairro": "CENTRO", "referencia": "Ao lado do Supermercado Rabelo", "cep": "62900000", "municipio": "Russas", "capacidade": "5.000 famílias referenciadas" }, "geometry": { "type": "Point", "coordinates": [ -37.977939, -4.939344 ] } },
    { "type": "Feature", "properties": { "id": "132", "cod_ibge": "230440", "id_cras": "23044014800", "nome": "CRAS CANINDEZINHO", "tipo": "Rua", "logradouro": "JOSÉ MAURÍCIO", "numero": "405", "complemento": "", "bairro": "CANINDEZINHO", "referencia": "", "cep": "60736140", "municipio": "Fortaleza", "capacidade": "5.000 famílias referenciadas" }, "geometry": { "type": "Point", "coordinates": [ -38.610098, -3.807926 ] } },
    { "type": "Feature", "properties": { "id": "133", "cod_ibge": "230350", "id_cras": "23035030100", "nome": "CRAS Caponga", "tipo": "Rua", "logradouro": "JOSÉ DA SILVA", "numero": "798", "complemento": "", "bairro": "Caponga", "referencia": "PX A ESCOLA MUNDO DO SABER", "cep": "62852000", "municipio": "Cascavel", "capacidade": "5.000 famílias referenciadas" }, "geometry": { "type": "Point", "coordinates": [ -38.1974, -4.04133 ] } },
    { "type": "Feature", "properties": { "id": "134", "cod_ibge": "230495", "id_cras": "23049520200", "nome": "CRAS CARLOS MOREIRA MEDEIROS", "tipo": "Rua", "logradouro": "JOAO MOREIRA", "numero": "0", "complemento": "", "bairro": "ÁGUA VERDE", "referencia": "PROXIMO AO POLO ABC", "cep": "61890000", "municipio": "Guaiúba", "capacidade": "3.500 famílias referenciadas" }, "geometry": { "type": "Point", "coordinates": [ -38.678892, -4.155427 ] } },
    { "type": "Feature", "properties": { "id": "135", "cod_ibge": "230290", "id_cras": "23029020400", "nome": "CRAS CARQUEIJA", "tipo": "Distrito", "logradouro": "CARQUEIJA DOS ALVES", "numero": "0", "complemento": "", "bairro": "ZONA RURAL", "referencia": "", "cep": "62748000", "municipio": "Capistrano", "capacidade": "2.500 famílias referenciadas" }, "geometry": { "type": "Point", "coordinates": [ -38.946362, -4.467973 ] } },
    { "type": "Feature", "properties": { "id": "136", "cod_ibge": "230837", "id_cras": "23083704100", "nome": "CRAS Casa da Família Sebastião Gonçalves Barroso", "tipo": "Rua", "logradouro": "Manoel Caçote", "numero": "0", "complemento": "", "bairro": "Tatuzão", "referencia": "", "cep": "62530000", "municipio": "Miraíma", "capacidade": "2.500 famílias referenciadas" }, "geometry": { "type": "Point", "coordinates": [ -39.969957, -3.568861 ] } },
    { "type": "Feature", "properties": { "id": "137", "cod_ibge": "230365", "id_cras": "23036502100", "nome": "CRAS CASA DAS FAMÍLIAS", "tipo": "Rua", "logradouro": "SÃO JOSÉ", "numero": "186", "complemento": "", "bairro": "CENTRO", "referencia": "", "cep": "62297000", "municipio": "Catunda", "capacidade": "2.500 famílias referenciadas" }, "geometry": { "type": "Point", "coordinates": [ -40.20024, -4.647861 ] } },
    { "type": "Feature", "properties": { "id": "138", "cod_ibge": "230070", "id_cras": "23007004100", "nome": "CRAS Casa do Cidadão", "tipo": "Rua", "logradouro": "Aderson Bessa", "numero": "0", "complemento": "", "bairro": "Dom Pompeu", "referencia": "Por trás Escola Estadual Francisco Nonato Freire", "cep": "62970000", "municipio": "Alto Santo", "capacidade": "2.500 famílias referenciadas" }, "geometry": { "type": "Point", "coordinates": [ -38.2673, -5.514735 ] } },
    { "type": "Feature", "properties": { "id": "139", "cod_ibge": "230440", "id_cras": "23044004000", "nome": "CRAS CASTELÃO", "tipo": "Avenida", "logradouro": "ALBERTO CRAVEIRO", "numero": "1480", "complemento": "", "bairro": "BOA VISTA", "referencia": "COMPLEXO DE CIDADANIA DR. PONTES NETO", "cep": "60861212", "municipio": "Fortaleza", "capacidade": "5.000 famílias referenciadas" }, "geometry": { "type": "Point", "coordinates": [ -38.518265, -3.793233 ] } },
    { "type": "Feature", "properties": { "id": "140", "cod_ibge": "230630", "id_cras": "23063002400", "nome": "CRAS CATÃO AZEVEDO CRUZ", "tipo": "Rua", "logradouro": "MANOEL BERNARDO DO NASCIMENTO", "numero": "50", "complemento": "sede do município", "bairro": "CRUZEIRO", "referencia": "AO LADO DO TERMINAL RODOVIÁRIO DE ITAPAJÉ.", "cep": "62600000", "municipio": "Itapajé", "capacidade": "3.500 famílias referenciadas" }, "geometry": { "type": "Point", "coordinates": [ -39.58606, -3.688584 ] } },
    { "type": "Feature", "properties": { "id": "141", "cod_ibge": "231400", "id_cras": "23140020500", "nome": "CRAS CECÍLIA BILIU", "tipo": "Rua", "logradouro": "BORGINHO", "numero": "109", "complemento": "", "bairro": "PATOS", "referencia": "", "cep": "63540000", "municipio": "Várzea Alegre", "capacidade": "3.500 famílias referenciadas" }, "geometry": { "type": "Point", "coordinates": [ -39.290474, -6.791647 ] } },
    { "type": "Feature", "properties": { "id": "142", "cod_ibge": "231340", "id_cras": "23134004200", "nome": "CRAS CENTRO", "tipo": "Rua", "logradouro": "RUA MAESTRO QUINCAS BEZERRIL", "numero": "445", "complemento": "", "bairro": "CENTRO", "referencia": "PROXIMO A LIVRARIA FREI DAMIÃO", "cep": "62320000", "municipio": "Tianguá", "capacidade": "5.000 famílias referenciadas" }, "geometry": { "type": "Point", "coordinates": [ -40.994319, -3.72345 ] } },
    { "type": "Feature", "properties": { "id": "143", "cod_ibge": "231280", "id_cras": "23128004200", "nome": "CRAS CENTRO DE REFERENCIA DA ASSISTENCIA SOCIAL", "tipo": "Rua", "logradouro": "JOSE MONTEIRO", "numero": "502", "complemento": "", "bairro": "NOSSA SENHORA DO AMPARO", "referencia": "AO LADO DO SINDICATO DOS TRABALHADORES RURAIS", "cep": "62470000", "municipio": "Senador Sá", "capacidade": "2.500 famílias referenciadas" }, "geometry": { "type": "Point", "coordinates": [ -40.462759, -3.353923 ] } },
    { "type": "Feature", "properties": { "id": "144", "cod_ibge": "230640", "id_cras": "23064001800", "nome": "CRAS Centro de Referência da Assistência Social - ALZIRA VIANA", "tipo": "Rua", "logradouro": "VICENTE MOURA VIANA", "numero": "2379", "complemento": "", "bairro": "CACIMBAS", "referencia": "DUCOCO", "cep": "62500000", "municipio": "Itapipoca", "capacidade": "5.000 famílias referenciadas" }, "geometry": { "type": "Point", "coordinates": [ -39.598879, -3.494017 ] } },
    { "type": "Feature", "properties": { "id": "145", "cod_ibge": "230640", "id_cras": "23064036500", "nome": "CRAS Centro de Referência da Assistência Social - BALEIA", "tipo": "Rua", "logradouro": "RUA FRANCISCO FÉLIX DO NASCIMENTO", "numero": "0", "complemento": "", "bairro": "Baleia", "referencia": "entrada da Baleia", "cep": "62500000", "municipio": "Itapipoca", "capacidade": "5.000 famílias referenciadas" }, "geometry": { "type": "Point", "coordinates": [ -39.442629, -3.1523 ] } },
    { "type": "Feature", "properties": { "id": "146", "cod_ibge": "230425", "id_cras": "23042503300", "nome": "CRAS CENTRO DE REFERENCIA DA ASSISTENCIA SOCIAL - CASA DA FAMILIA", "tipo": "Rua", "logradouro": "VEREADOR MUNDICO MARTINS", "numero": "0", "complemento": "", "bairro": "MALVINAS", "referencia": "ESCOLA MARIA PEREIRA BRANDÃO", "cep": "62595000", "municipio": "Cruz", "capacidade": "3.500 famílias referenciadas" }, "geometry": { "type": "Point", "coordinates": [ -40.180006, -2.920476 ] } },
    { "type": "Feature", "properties": { "id": "147", "cod_ibge": "230900", "id_cras": "23090006500", "nome": "CRAS Centro de Referencia da Assistência Social - CRAS", "tipo": "Avenida", "logradouro": "Agrônomo José Alves", "numero": "0", "complemento": "", "bairro": "Centro", "referencia": "Escola de Ensino Fundamental Elze Mendes Aguiar", "cep": "62170000", "municipio": "Mucambo", "capacidade": "2.500 famílias referenciadas" }, "geometry": { "type": "Point", "coordinates": [ -40.741858, -3.904166 ] } },
    { "type": "Feature", "properties": { "id": "148", "cod_ibge": "231240", "id_cras": "23124003000", "nome": "CRAS CENTRO DE REFERENCIA DA ASSISTENCIA SOCIAL - CRAS PECÉM", "tipo": "Rua", "logradouro": "Maria de Lourdes Sampaio", "numero": "0", "complemento": "Planalto Pecém", "bairro": "PECÉM", "referencia": "", "cep": "62674000", "municipio": "São Gonçalo do Amarante", "capacidade": "5.000 famílias referenciadas" }, "geometry": { "type": "Point", "coordinates": [ -38.969, -3.606 ] } },
    { "type": "Feature", "properties": { "id": "149", "cod_ibge": "230100", "id_cras": "23010001500", "nome": "CRAS CENTRO DE REFERÊNCIA DA ASSISTÊNCIA SOCIAL - CRAS PRAINHA", "tipo": "Avenida", "logradouro": "Damião Tavares de Sousa,", "numero": "6", "complemento": "", "bairro": "PRAINHA", "referencia": "Prox. ao Hotel Laguna Blue", "cep": "61700000", "municipio": "Aquiraz", "capacidade": "5.000 famílias referenciadas" }, "geometry": { "type": "Point", "coordinates": [ -38.349927, -3.902 ] } },
    { "type": "Feature", "properties": { "id": "150", "cod_ibge": "230090", "id_cras": "23009020300", "nome": "CRAS Centro de Referência da Assistência Social - CRAS SALGADO", "tipo": "Distrito", "logradouro": "Localidade de Salgado", "numero": "2", "complemento": "na Rua Central", "bairro": "Salgado", "referencia": "Comunidade de Salgado, na Rua Principal", "cep": "62630000", "municipio": "Apuiarés", "capacidade": "2.500 famílias referenciadas" }, "geometry": { "type": "Point", "coordinates": [ -39.413431, -3.937427 ] } },
    { "type": "Feature", "properties": { "id": "151", "cod_ibge": "230100", "id_cras": "23010001500", "nome": "CRAS CENTRO DE REFERÊNCIA DA ASSISTÊNCIA SOCIAL - CRAS SEDE", "tipo": "Rua", "logradouro": "JOÃO LIMA", "numero": "0", "complemento": "", "bairro": "GRUTA", "referencia": "CRECHE CRIANÇA FELIZ", "cep": "61700000", "municipio": "Aquiraz", "capacidade": "5.000 famílias referenciadas" }, "geometry": { "type": "Point", "coordinates": [ -38.389621, -3.906172 ] } },
    { "type": "Feature", "properties": { "id": "152", "cod_ibge": "230280", "id_cras": "23028001800", "nome": "CRAS Centro de Referência da Assistência Social - I\/ Santa Clara", "tipo": "Rua", "logradouro": "Antonio Santiago", "numero": "1792", "complemento": "-", "bairro": "SANTA LUZIA", "referencia": "POR TRÁS DA SECRETARIA DA ASSISTÊNCIA SOCIAL", "cep": "62700000", "municipio": "Canindé", "capacidade": "5.000 famílias referenciadas" }, "geometry": { "type": "Point", "coordinates": [ -39.318942, -4.35405 ] } },
    { "type": "Feature", "properties": { "id": "153", "cod_ibge": "230280", "id_cras": "23028001800", "nome": "CRAS Centro de Referência da Assistência Social - II\/ Palestina", "tipo": "Avenida", "logradouro": "Antonio Monteiro dos Santos", "numero": "1", "complemento": "-", "bairro": "Palestina", "referencia": "CAIC", "cep": "62700000", "municipio": "Canindé", "capacidade": "5.000 famílias referenciadas" }, "geometry": { "type": "Point", "coordinates": [ -39.311174, -4.367518 ] } },
    { "type": "Feature", "properties": { "id": "154", "cod_ibge": "230280", "id_cras": "23028030300", "nome": "CRAS Centro de Referência da Assistência Social - III\/Bela Vista", "tipo": "Avenida", "logradouro": "Luciano Magalhaes", "numero": "0", "complemento": "s\/n", "bairro": "Bela Vista", "referencia": "Praça dos Mestres", "cep": "62700000", "municipio": "Canindé", "capacidade": "5.000 famílias referenciadas" }, "geometry": { "type": "Point", "coordinates": [ -39.30861, -4.346176 ] } },
    { "type": "Feature", "properties": { "id": "155", "cod_ibge": "230280", "id_cras": "23028020400", "nome": "CRAS Centro de Referência da Assistência Social - IV\/ Monte", "tipo": "Rua", "logradouro": "Joaquim Teodoro da Silva", "numero": "42", "complemento": "-", "bairro": "Monte", "referencia": "Próximo à Igreja do Monte", "cep": "62700000", "municipio": "Canindé", "capacidade": "5.000 famílias referenciadas" }, "geometry": { "type": "Point", "coordinates": [ -39.318863, -4.360931 ] } },
    { "type": "Feature", "properties": { "id": "156", "cod_ibge": "231130", "id_cras": "23113020100", "nome": "CRAS CENTRO DE REFERÊNCIA DA ASSISTÊNCIA SOCIAL CAMPO NOVO", "tipo": "Avenida", "logradouro": "PRESIDENTE VARGAS", "numero": "0", "complemento": "", "bairro": "CAMPO NOVO", "referencia": "", "cep": "63905445", "municipio": "Quixadá", "capacidade": "5.000 famílias referenciadas" }, "geometry": { "type": "Point", "coordinates": [ -39.019833, -4.990713 ] } },
    { "type": "Feature", "properties": { "id": "157", "cod_ibge": "231130", "id_cras": "23113002500", "nome": "CRAS CENTRO DE REFERÊNCIA DA ASSISTÊNCIA SOCIAL CAMPO VELHO", "tipo": "Rua", "logradouro": "Presidente Kennedy", "numero": "0", "complemento": "", "bairro": "Alta São Francisco", "referencia": "", "cep": "63908075", "municipio": "Quixadá", "capacidade": "5.000 famílias referenciadas" }, "geometry": { "type": "Point", "coordinates": [ -39.006958, -4.969943 ] } },
    { "type": "Feature", "properties": { "id": "158", "cod_ibge": "230565", "id_cras": "23056501100", "nome": "CRAS CENTRO DE REFERÊNCIA DA ASSISTÊNCIA SOCIAL DE IPAPORANGA", "tipo": "Rua", "logradouro": "JOÃO VIEIRA PASSOS", "numero": "46", "complemento": "casa", "bairro": "CENTRAL", "referencia": "", "cep": "62215000", "municipio": "Ipaporanga", "capacidade": "2.500 famílias referenciadas" }, "geometry": { "type": "Point", "coordinates": [ -40.76494, -4.906286 ] } },
    { "type": "Feature", "properties": { "id": "159", "cod_ibge": "230810", "id_cras": "23081004200", "nome": "CRAS CENTRO DE REFERENCIA DA ASSISTENCIA SOCIAL DE MAURITI", "tipo": "Rua", "logradouro": "RUA CAPITÃO MIGUEL DANTAS", "numero": "0", "complemento": "", "bairro": "CENTRO", "referencia": "", "cep": "63210000", "municipio": "Mauriti", "capacidade": "3.500 famílias referenciadas" }, "geometry": { "type": "Point", "coordinates": [ -38.775944, -7.389055 ] } },
    { "type": "Feature", "properties": { "id": "160", "cod_ibge": "230120", "id_cras": "23012020100", "nome": "CRAS CENTRO DE REFERÊNCIA DE ASSISTÊNCIA  SOCIAL DE IDEAL", "tipo": "Avenida", "logradouro": "JAIME DE SOUSA NOBRE", "numero": "0", "complemento": "DISTRITO DE IDEAL", "bairro": "CENTRO", "referencia": "ANTIGO PRÉDIO DOS CORREIOS", "cep": "62754000", "municipio": "Aracoiaba", "capacidade": "3.500 famílias referenciadas" }, "geometry": { "type": "Point", "coordinates": [ -38.668528, -4.432675 ] } },
    { "type": "Feature", "properties": { "id": "161", "cod_ibge": "231126", "id_cras": "23112601800", "nome": "CRAS CENTRO DE REFERÊNCIA DE ASSISTENCIA SOCIAL", "tipo": "Rua", "logradouro": "RUA DAS ACACIAS", "numero": "100", "complemento": "", "bairro": "CENTRO", "referencia": "PRÓXIMO A SECRETARIA DE AGRICULTURA", "cep": "63650000", "municipio": "Quiterianópolis", "capacidade": "3.500 famílias referenciadas" }, "geometry": { "type": "Point", "coordinates": [ -40.70205, -5.848095 ] } },
    { "type": "Feature", "properties": { "id": "162", "cod_ibge": "230330", "id_cras": "23033002800", "nome": "CRAS Centro de Referência de Assistência Social", "tipo": "Rua", "logradouro": "RAUL NOGUEIRA II", "numero": "0", "complemento": "-", "bairro": "Centro", "referencia": "Predio do Antigo GrêmioPróximo a prefeitura Municipal", "cep": "63530000", "municipio": "Cariús", "capacidade": "2.500 famílias referenciadas" }, "geometry": { "type": "Point", "coordinates": [ -39.4966, -6.535895 ] } },
    { "type": "Feature", "properties": { "id": "163", "cod_ibge": "231025", "id_cras": "23102504100", "nome": "CRAS CENTRO DE REFERÊNCIA DE ASSISTÊNCIA SOCIAL", "tipo": "Rua", "logradouro": "MARIA CLARICE MOREIRA", "numero": "200", "complemento": "", "bairro": "BOA ESPERANÇA", "referencia": "", "cep": "62685000", "municipio": "Paraipaba", "capacidade": "3.500 famílias referenciadas" }, "geometry": { "type": "Point", "coordinates": [ -39.146883, -3.432074 ] } },
    { "type": "Feature", "properties": { "id": "164", "cod_ibge": "231210", "id_cras": "23121003800", "nome": "CRAS CENTRO DE REFERÊNCIA DE ASSISTÊNCIA SOCIAL - CASA DA FAMILIA", "tipo": "Rua", "logradouro": "NICOSTRATO NUVENS", "numero": "367", "complemento": "", "bairro": "CENTRO", "referencia": "Próximo a Quadra Polisportiva Deputado Manoel Salviano.", "cep": "63190000", "municipio": "Santana do Cariri", "capacidade": "2.500 famílias referenciadas" }, "geometry": { "type": "Point", "coordinates": [ -39.737817, -7.187079 ] } },
    { "type": "Feature", "properties": { "id": "165", "cod_ibge": "230780", "id_cras": "23078020000", "nome": "CRAS CENTRO DE REFERÊNCIA DE ASSISTENCIA SOCIAL - TRIANGULO", "tipo": "Vila", "logradouro": "TRIANGULO", "numero": "34", "complemento": "PRAÇA DA MATRIZ -TRIANGULO", "bairro": "TRIANGULO", "referencia": "", "cep": "62560000", "municipio": "Marco", "capacidade": "3.500 famílias referenciadas" }, "geometry": { "type": "Point", "coordinates": [ -40.158598, -3.128875 ] } },
    { "type": "Feature", "properties": { "id": "166", "cod_ibge": "231320", "id_cras": "23132002800", "nome": "CRAS CENTRO DE REFERÊNCIA DE ASSISTÊNCIA SOCIAL- CRAS SEDE", "tipo": "Rua", "logradouro": "CORONEL SALUSTIANO", "numero": "0", "complemento": "", "bairro": "CENTRO", "referencia": "", "cep": "63750000", "municipio": "Tamboril", "capacidade": "3.500 famílias referenciadas" }, "geometry": { "type": "Point", "coordinates": [ -40.325403, -4.830483 ] } },
    { "type": "Feature", "properties": { "id": "167", "cod_ibge": "231200", "id_cras": "23120002500", "nome": "CRAS CHAGAS VASCONCELOS", "tipo": "Rua", "logradouro": "CICERO SARAIVA", "numero": "0", "complemento": "", "bairro": "RIO DAS GARCAS", "referencia": "EM FRENTE AO ESTÁDIO MUNICIPAL BRAIZÃO", "cep": "62150000", "municipio": "Santana do Acaraú", "capacidade": "3.500 famílias referenciadas" }, "geometry": { "type": "Point", "coordinates": [ -40.211888, -3.466174 ] } },
    { "type": "Feature", "properties": { "id": "168", "cod_ibge": "230390", "id_cras": "23039004100", "nome": "CRAS CHAVAL", "tipo": "Rua", "logradouro": "RUA RAIMUNDO DE CASTRO MIRANDA", "numero": "0", "complemento": "", "bairro": "CENTRO", "referencia": "", "cep": "62420000", "municipio": "Chaval", "capacidade": "2.500 famílias referenciadas" }, "geometry": { "type": "Point", "coordinates": [ -41.236217, -3.032778 ] } },
    { "type": "Feature", "properties": { "id": "169", "cod_ibge": "231010", "id_cras": "23101003600", "nome": "CRAS CLEMENTINO RODRIGUES CAMPELO", "tipo": "Rua", "logradouro": "FRANCISCO DE QUEIROZ", "numero": "0", "complemento": "", "bairro": "CENTRO", "referencia": "praça", "cep": "62780000", "municipio": "Palmácia", "capacidade": "3.500 famílias referenciadas" }, "geometry": { "type": "Point", "coordinates": [ -38.846406, -4.14716 ] } },
    { "type": "Feature", "properties": { "id": "170", "cod_ibge": "230550", "id_cras": "23055030500", "nome": "CRAS COHABS", "tipo": "Rua", "logradouro": "GUILHARDO GOMES DE ARAUJO", "numero": "0", "complemento": "", "bairro": "COHAB II", "referencia": "PROXIMO A DAKOTA", "cep": "63500000", "municipio": "Iguatu", "capacidade": "5.000 famílias referenciadas" }, "geometry": { "type": "Point", "coordinates": [ -39.312137, -6.370524 ] } },
    { "type": "Feature", "properties": { "id": "171", "cod_ibge": "231330", "id_cras": "23133001100", "nome": "CRAS Colibris", "tipo": "Rua", "logradouro": "Anderson Ferreira dos Reis", "numero": "62", "complemento": "", "bairro": "Meireles", "referencia": "em frente ao comércio do Sr. Pedro", "cep": "63660000", "municipio": "Tauá", "capacidade": "5.000 famílias referenciadas" }, "geometry": { "type": "Point", "coordinates": [ -40.296213, -6.006535 ] } },
    { "type": "Feature", "properties": { "id": "172", "cod_ibge": "230440", "id_cras": "23044014800", "nome": "CRAS CONJUNTO ESPERANÇA", "tipo": "Rua", "logradouro": "103", "numero": "195", "complemento": "", "bairro": "CONJUNTO ESPERANÇA", "referencia": "", "cep": "60763520", "municipio": "Fortaleza", "capacidade": "5.000 famílias referenciadas" }, "geometry": { "type": "Point", "coordinates": [ -38.58956, -3.813894 ] } },
    { "type": "Feature", "properties": { "id": "173", "cod_ibge": "230440", "id_cras": "23044020200", "nome": "CRAS CONJUNTO PALMEIRAS", "tipo": "Rua", "logradouro": "IRACEMA", "numero": "1860", "complemento": "", "bairro": "CONJUNTO PALMEIRAS", "referencia": "Mercantil Senna", "cep": "60870260", "municipio": "Fortaleza", "capacidade": "5.000 famílias referenciadas" }, "geometry": { "type": "Point", "coordinates": [ -38.530254, -3.847149 ] } },
    { "type": "Feature", "properties": { "id": "174", "cod_ibge": "231180", "id_cras": "23118001100", "nome": "CRAS CONSTRUINDO O FUTURO", "tipo": "Rua", "logradouro": "FRANCISCO SCIPIÃO SIMÕES", "numero": "162", "complemento": "", "bairro": "VARZEA ALEGRE", "referencia": "ANTIGO PETI VÁRZEA ALEGRE, PRÓXIMO AO SUPERMERCADO F5", "cep": "62900000", "municipio": "Russas", "capacidade": "5.000 famílias referenciadas" }, "geometry": { "type": "Point", "coordinates": [ -37.967015, -4.93025 ] } },
    { "type": "Feature", "properties": { "id": "175", "cod_ibge": "231375", "id_cras": "23137520200", "nome": "CRAS CORONEL JOSE DA COSTA", "tipo": "Avenida", "logradouro": "FELISBELA CAETANO", "numero": "0", "complemento": "", "bairro": "DISTRITO DE SAO JOAQUIM", "referencia": "", "cep": "62660000", "municipio": "Umirim", "capacidade": "2.500 famílias referenciadas" }, "geometry": { "type": "Point", "coordinates": [ -39.449472, -3.692182 ] } },
    { "type": "Feature", "properties": { "id": "176", "cod_ibge": "230440", "id_cras": "23044002600", "nome": "CRAS COUTO FERNANDES", "tipo": "Avenida", "logradouro": "JOÃO PESSOA", "numero": "4474", "complemento": "", "bairro": "DAMAS", "referencia": "PRÓXIMO À RUA COSTA MENDES", "cep": "60425812", "municipio": "Fortaleza", "capacidade": "5.000 famílias referenciadas" }, "geometry": { "type": "Point", "coordinates": [ -38.549331, -3.752081 ] } },
    { "type": "Feature", "properties": { "id": "177", "cod_ibge": "231350", "id_cras": "23135020300", "nome": "CRAS Cristina Chaves Rebouças", "tipo": "Avenida", "logradouro": "Senador Virgílio Tavora", "numero": "948", "complemento": "", "bairro": "Corrego Sao Gonçalo", "referencia": "Colegio Eliseu Barbosa", "cep": "62690000", "municipio": "Trairi", "capacidade": "5.000 famílias referenciadas" }, "geometry": { "type": "Point", "coordinates": [ -39.261982, -3.284785 ] } },
    { "type": "Feature", "properties": { "id": "178", "cod_ibge": "231230", "id_cras": "23123020000", "nome": "CRAS DAMIÃO JORGE NETO", "tipo": "Rua", "logradouro": "IRINEU PINTO DA SILVEIRA", "numero": "100", "complemento": "PREDIO", "bairro": "CHORA", "referencia": "", "cep": "62370000", "municipio": "São Benedito", "capacidade": "3.500 famílias referenciadas" }, "geometry": { "type": "Point", "coordinates": [ -40.871856, -4.051087 ] } },
    { "type": "Feature", "properties": { "id": "179", "cod_ibge": "230725", "id_cras": "23072538500", "nome": "CRAS de Jericoacoara", "tipo": "Rua", "logradouro": "Isabele", "numero": "0", "complemento": "", "bairro": "Novo Jeri", "referencia": "Em frente a UBS\/Ao lado do Polo de Jericoacoara", "cep": "62598000", "municipio": "Jijoca de Jericoacoara", "capacidade": "2.500 famílias referenciadas" }, "geometry": { "type": "Point", "coordinates": [ -40.511809, -2.79894 ] } },
    { "type": "Feature", "properties": { "id": "180", "cod_ibge": "230650", "id_cras": "23065002100", "nome": "CRAS DE PALMATÓRIA", "tipo": "Rua", "logradouro": "SÃO FELIX", "numero": "0", "complemento": "", "bairro": "DISTRITO DE PALMATORIA", "referencia": "", "cep": "62744000", "municipio": "Itapiúna", "capacidade": "2.500 famílias referenciadas" }, "geometry": { "type": "Point", "coordinates": [ -39.00434, -4.523313 ] } },
    { "type": "Feature", "properties": { "id": "181", "cod_ibge": "231355", "id_cras": "23135502400", "nome": "CRAS DE TURURU FRANCISCA GRISLÉDIA PATRICIO", "tipo": "Avenida", "logradouro": "JOANA PIRES", "numero": "1", "complemento": "", "bairro": "CENTRO", "referencia": "próximo ao polo de convivência social", "cep": "62655000", "municipio": "Tururu", "capacidade": "2.500 famílias referenciadas" }, "geometry": { "type": "Point", "coordinates": [ -39.436197, -3.602213 ] } },
    { "type": "Feature", "properties": { "id": "182", "cod_ibge": "230440", "id_cras": "23044004000", "nome": "CRAS DENDÊ", "tipo": "Rua", "logradouro": "ADOLFO MOREIRA DE CARVALHO", "numero": "96", "complemento": "", "bairro": "EDSON QUEIROZ", "referencia": "Próximo ao Fórum Clóvis Beviláqua.", "cep": "60811700", "municipio": "Fortaleza", "capacidade": "5.000 famílias referenciadas" }, "geometry": { "type": "Point", "coordinates": [ -38.4773, -3.7735 ] } },
    { "type": "Feature", "properties": { "id": "183", "cod_ibge": "231270", "id_cras": "23127002900", "nome": "CRAS DO ALTO DO CRUZEIRO", "tipo": "Rua", "logradouro": "Rua H", "numero": "83", "complemento": "CONJUNTO COHAB", "bairro": "ALTO DO CRUZEIRO", "referencia": "", "cep": "63600000", "municipio": "Senador Pompeu", "capacidade": "3.500 famílias referenciadas" }, "geometry": { "type": "Point", "coordinates": [ -39.382446, -5.585971 ] } },
    { "type": "Feature", "properties": { "id": "184", "cod_ibge": "231270", "id_cras": "23127020100", "nome": "CRAS DO PAVÃOZINHO", "tipo": "Rua", "logradouro": "GEMINIANO VITORIANO DE OLIVEIRA", "numero": "149", "complemento": "", "bairro": "PAVÃOZINHO", "referencia": "PRÓXIMO A CAPELA SANTO ANTONIO", "cep": "63600000", "municipio": "Senador Pompeu", "capacidade": "3.500 famílias referenciadas" }, "geometry": { "type": "Point", "coordinates": [ -39.38125, -5.592853 ] } },
    { "type": "Feature", "properties": { "id": "185", "cod_ibge": "231290", "id_cras": "23129006600", "nome": "CRAS DOM JOSE", "tipo": "Rua", "logradouro": "Francisco Costa", "numero": "380", "complemento": "", "bairro": "Dom José", "referencia": "", "cep": "62015045", "municipio": "Sobral", "capacidade": "5.000 famílias referenciadas" }, "geometry": { "type": "Point", "coordinates": [ -40.365221, -3.695164 ] } },
    { "type": "Feature", "properties": { "id": "186", "cod_ibge": "231260", "id_cras": "23126006700", "nome": "CRAS DOMINGOS ANSELMO", "tipo": "Rua", "logradouro": "ROCHAEL MOREIRA", "numero": "0", "complemento": "PRÉDIO", "bairro": "CENTRO", "referencia": "ATRÁS DA PREFEITURA", "cep": "62665000", "municipio": "São Luís do Curu", "capacidade": "2.500 famílias referenciadas" }, "geometry": { "type": "Point", "coordinates": [ -39.239902, -3.667356 ] } },
    { "type": "Feature", "properties": { "id": "187", "cod_ibge": "230523", "id_cras": "23052333500", "nome": "CRAS DOURADO", "tipo": "Rua", "logradouro": "Dona Sinhá", "numero": "53", "complemento": "", "bairro": "Dourado", "referencia": "Em frente ao mercadp", "cep": "62880000", "municipio": "Horizonte", "capacidade": "5.000 famílias referenciadas" }, "geometry": { "type": "Point", "coordinates": [ -38.45541, -4.100532 ] } },
    { "type": "Feature", "properties": { "id": "188", "cod_ibge": "231080", "id_cras": "23108002300", "nome": "CRAS EDITE HOLANDA CAVALCANTE", "tipo": "Rua", "logradouro": "JOSE BRAGA FALCAO", "numero": "0", "complemento": "SN", "bairro": "CENTRO", "referencia": "Ao lado da Quadra do colegio (Ginasio Francisco Moura da Silva).", "cep": "63460000", "municipio": "Pereiro", "capacidade": "2.500 famílias referenciadas" }, "geometry": { "type": "Point", "coordinates": [ -38.459916, -6.044615 ] } },
    { "type": "Feature", "properties": { "id": "189", "cod_ibge": "230370", "id_cras": "23037001200", "nome": "CRAS EDSON DA MOTA CORRÊA", "tipo": "Rua", "logradouro": "JOSÉ DE PONTES", "numero": "0", "complemento": "", "bairro": "Açude", "referencia": "FUNPEM", "cep": "61605060", "municipio": "Caucaia", "capacidade": "5.000 famílias referenciadas" }, "geometry": { "type": "Point", "coordinates": [ -38.654119, -3.737687 ] } },
    { "type": "Feature", "properties": { "id": "190", "cod_ibge": "230420", "id_cras": "23042038800", "nome": "CRAS EDVARDO RIBEIRO - PONTA DA SERRA", "tipo": "Rua", "logradouro": "ANTONIO ARAJANO", "numero": "0", "complemento": "", "bairro": "ZONA RURAL", "referencia": "QUADRA POLISPORTIVA DE  PONTA DA SERRA.", "cep": "63100000", "municipio": "Crato", "capacidade": "5.000 famílias referenciadas" }, "geometry": { "type": "Point", "coordinates": [ -39.409, -7.234 ] } },
    { "type": "Feature", "properties": { "id": "191", "cod_ibge": "231390", "id_cras": "23139020600", "nome": "CRAS EGUIMAR CONRADO", "tipo": "Travessa", "logradouro": "JOAO BATISTA DE VASCONCELOS", "numero": "0", "complemento": "DISTRITO CAMPANARIO", "bairro": "CENTRO", "referencia": "", "cep": "62460000", "municipio": "Uruoca", "capacidade": "2.500 famílias referenciadas" }, "geometry": { "type": "Point", "coordinates": [ -40.737348, -3.368372 ] } },
    { "type": "Feature", "properties": { "id": "192", "cod_ibge": "230530", "id_cras": "23053003400", "nome": "CRAS ESTÁDIO", "tipo": "Rua", "logradouro": "VEREADOR MANUEL RODRIGUES", "numero": "0", "complemento": "", "bairro": "PRAÇA DO ESTÁDIO", "referencia": "VIZINHO AO INSS", "cep": "62360000", "municipio": "Ibiapina", "capacidade": "3.500 famílias referenciadas" }, "geometry": { "type": "Point", "coordinates": [ -40.892548, -3.923943 ] } },
    { "type": "Feature", "properties": { "id": "193", "cod_ibge": "230820", "id_cras": "23082003800", "nome": "CRAS EXPEDITA DAVI DE OLIVEIRA - SONHO MEU", "tipo": "Rua", "logradouro": "MONSENHOR FURTADO", "numero": "0", "complemento": "", "bairro": "CENTRO", "referencia": "Vizinho ao Fórum", "cep": "62130000", "municipio": "Meruoca", "capacidade": "2.500 famílias referenciadas" }, "geometry": { "type": "Point", "coordinates": [ -40.456405, -3.538013 ] } },
    { "type": "Feature", "properties": { "id": "194", "cod_ibge": "231030", "id_cras": "23103020400", "nome": "CRAS FABRÍCIO NORONHA CAVALCANTE - CRAS II - VILA NOVA", "tipo": "Rua", "logradouro": "SEVERINO ALVES PEREIRA", "numero": "0", "complemento": "", "bairro": "Vila Nova", "referencia": "Após a FM Novo Tempo\/ sentido Cagece.", "cep": "63680000", "municipio": "Parambu", "capacidade": "3.500 famílias referenciadas" }, "geometry": { "type": "Point", "coordinates": [ -40.702372, -6.21522 ] } },
    { "type": "Feature", "properties": { "id": "195", "cod_ibge": "230500", "id_cras": "23050004400", "nome": "CRAS FAMÍLIA CIDADÃ", "tipo": "Avenida", "logradouro": "AV. MONSENHOR FURTADO", "numero": "539", "complemento": "", "bairro": "CENTRO", "referencia": "", "cep": "62380000", "municipio": "Guaraciaba do Norte", "capacidade": "3.500 famílias referenciadas" }, "geometry": { "type": "Point", "coordinates": [ -40.75232, -4.162063 ] } },
    { "type": "Feature", "properties": { "id": "196", "cod_ibge": "230810", "id_cras": "23081020500", "nome": "CRAS FRANCISCA ALVES DE MEDEIROS-BURITIZINHO", "tipo": "Rua", "logradouro": "JOÃO LUCAS", "numero": "0", "complemento": "", "bairro": "DISTRITO DE BURITIZINHO", "referencia": "mercantil tem de tudo", "cep": "63210000", "municipio": "Mauriti", "capacidade": "3.500 famílias referenciadas" }, "geometry": { "type": "Point", "coordinates": [ -38.78, -7.314285 ] } },
    { "type": "Feature", "properties": { "id": "197", "cod_ibge": "230763", "id_cras": "23076311300", "nome": "CRAS FRANCISCA AUGUSTA VIEIRA", "tipo": "Rua", "logradouro": "JOSE HOMERO SARAIVA CAMARA", "numero": "120", "complemento": "", "bairro": "SANTA TEREZINHA", "referencia": "", "cep": "63860000", "municipio": "Madalena", "capacidade": "2.500 famílias referenciadas" }, "geometry": { "type": "Point", "coordinates": [ -39.576304, -4.851005 ] } },
    { "type": "Feature", "properties": { "id": "198", "cod_ibge": "230830", "id_cras": "23083002700", "nome": "CRAS FRANCISCA DO SOCORRO", "tipo": "Rua", "logradouro": "RUA NOSSA SENHORA DOS MILAGRES", "numero": "1051", "complemento": "CASA", "bairro": "FRANCISCA DO SOCORRO", "referencia": "", "cep": "63250000", "municipio": "Milagres", "capacidade": "3.500 famílias referenciadas" }, "geometry": { "type": "Point", "coordinates": [ -38.947864, -7.309475 ] } },
    { "type": "Feature", "properties": { "id": "199", "cod_ibge": "230370", "id_cras": "23037001200", "nome": "CRAS FRANCISCA ESTRELA TORQUATO", "tipo": "Avenida", "logradouro": "Juaci Sampaio Pontes", "numero": "2803", "complemento": "", "bairro": "Cigana", "referencia": "", "cep": "61600150", "municipio": "Caucaia", "capacidade": "5.000 famílias referenciadas" }, "geometry": { "type": "Point", "coordinates": [ -38.664247, -3.743372 ] } },
    { "type": "Feature", "properties": { "id": "200", "cod_ibge": "230800", "id_cras": "23080003800", "nome": "CRAS FRANCISCA LIMA ALBUQUERQUE", "tipo": "Rua", "logradouro": "ALTO DA CONQUISTA", "numero": "1", "complemento": "", "bairro": "NOSSA SENHORA DE FATIMA", "referencia": "Vizinho ao PSF do Bairro Nossa Senhora de Fátima", "cep": "62140000", "municipio": "Massapê", "capacidade": "3.500 famílias referenciadas" }, "geometry": { "type": "Point", "coordinates": [ -40.341067, -3.530469 ] } },
    { "type": "Feature", "properties": { "id": "201", "cod_ibge": "230945", "id_cras": "23094502300", "nome": "CRAS FRANCISCA MARCOS LIMA - SEDE", "tipo": "Rua", "logradouro": "FRANCISCA CORREIRA DOS SANTOS", "numero": "0", "complemento": "OUTRO LADO", "bairro": "SÃO PEDRO", "referencia": "", "cep": "62755000", "municipio": "Ocara", "capacidade": "3.500 famílias referenciadas" }, "geometry": { "type": "Point", "coordinates": [ -38.599091, -4.496403 ] } },
    { "type": "Feature", "properties": { "id": "202", "cod_ibge": "230610", "id_cras": "23061002500", "nome": "CRAS FRANCISCA RODRIGUES DANTAS\/MISSI", "tipo": "Rua", "logradouro": "Rua Miguel Barbosa", "numero": "340", "complemento": "", "bairro": "DISTRITO MISSI", "referencia": "", "cep": "62620000", "municipio": "Irauçuba", "capacidade": "3.500 famílias referenciadas" }, "geometry": { "type": "Point", "coordinates": [ -39.820483, -3.621765 ] } },
    { "type": "Feature", "properties": { "id": "203", "cod_ibge": "230970", "id_cras": "23097001200", "nome": "CRAS FRANCISCO CHAGAS DE SOUSA", "tipo": "Rua", "logradouro": "Francisco Lopes Sobrinho", "numero": "2841", "complemento": "", "bairro": "ALTO SÃO JOÃO", "referencia": "ABC", "cep": "61800000", "municipio": "Pacatuba", "capacidade": "5.000 famílias referenciadas" }, "geometry": { "type": "Point", "coordinates": [ -38.619052, -3.994828 ] } },
    { "type": "Feature", "properties": { "id": "204", "cod_ibge": "230830", "id_cras": "23083020300", "nome": "CRAS FRANCISCO COELHO DA CRUZ", "tipo": "Distrito", "logradouro": "FRONTEIRO", "numero": "0", "complemento": "", "bairro": "ZONA RURAL", "referencia": "", "cep": "63250000", "municipio": "Milagres", "capacidade": "3.500 famílias referenciadas" }, "geometry": { "type": "Point", "coordinates": [ -38.879714, -7.292512 ] } },
    { "type": "Feature", "properties": { "id": "205", "cod_ibge": "230370", "id_cras": "23037020700", "nome": "CRAS FRANCISCO DE ASSIS MARTINS NOGUEIRA - GUADALAJARA", "tipo": "Rua", "logradouro": "ACAPULCO", "numero": "706", "complemento": "ESQUINA COM RUA SACY", "bairro": "PARQUE GUADALAJARA", "referencia": "Praça do Remo", "cep": "61650160", "municipio": "Caucaia", "capacidade": "5.000 famílias referenciadas" }, "geometry": { "type": "Point", "coordinates": [ -38.6204, -3.763193 ] } },
    { "type": "Feature", "properties": { "id": "206", "cod_ibge": "231070", "id_cras": "23107002100", "nome": "CRAS FRANCISCO MOZART PESSOA", "tipo": "Rua", "logradouro": "FRANCISCO OLIVEIRA LIMA", "numero": "0", "complemento": "", "bairro": "SAO FRANCISCO", "referencia": "VIZINHO AO POSTO DE SAÚDE DO BAIRRO SÃO FRANCISCO", "cep": "62640000", "municipio": "Pentecoste", "capacidade": "3.500 famílias referenciadas" }, "geometry": { "type": "Point", "coordinates": [ -39.267371539915075, -3.794100180819686 ] } },
    { "type": "Feature", "properties": { "id": "207", "cod_ibge": "230420", "id_cras": "23042003900", "nome": "CRAS FRANCISCO RIBEIRO - VILA ALTA", "tipo": "Rua", "logradouro": "CORONEL JOSÉ MAIA", "numero": "0", "complemento": "", "bairro": "VILA ALTA", "referencia": "PRÓXIMO A ESCOLA ALDEGUNDES GOMES DE MATO", "cep": "63119060", "municipio": "Crato", "capacidade": "5.000 famílias referenciadas" }, "geometry": { "type": "Point", "coordinates": [ -39.415834, -7.221651 ] } },
    { "type": "Feature", "properties": { "id": "208", "cod_ibge": "230240", "id_cras": "23024003900", "nome": "CRAS FRANCISCO SALES DO NASCIMENTO - CRAS II", "tipo": "Rua", "logradouro": "JOSÉ VIEIRA DE FREITAS", "numero": "100", "complemento": "", "bairro": "COHAB", "referencia": "", "cep": "63870000", "municipio": "Boa Viagem", "capacidade": "5.000 famílias referenciadas" }, "geometry": { "type": "Point", "coordinates": [ -39.7417, -5.119444 ] } },
    { "type": "Feature", "properties": { "id": "209", "cod_ibge": "230945", "id_cras": "23094534600", "nome": "CRAS Francisco Sivaldo de Sousa (Sereno)", "tipo": "Rua", "logradouro": "LUIS GOMES", "numero": "0", "complemento": "", "bairro": "Sereno", "referencia": "UBASF", "cep": "62755000", "municipio": "Ocara", "capacidade": "3.500 famílias referenciadas" }, "geometry": { "type": "Point", "coordinates": [ -38.561754, -4.48273 ] } },
    { "type": "Feature", "properties": { "id": "210", "cod_ibge": "230440", "id_cras": "23044003000", "nome": "CRAS GENIBAÚ", "tipo": "Avenida", "logradouro": "I", "numero": "340", "complemento": "3ª ETAPA", "bairro": "CONJUNTO CEARÁ", "referencia": "Posto de Saúde Ronaldo Albuquerque", "cep": "60533670", "municipio": "Fortaleza", "capacidade": "5.000 famílias referenciadas" }, "geometry": { "type": "Point", "coordinates": [ -38.597218, -3.766603 ] } },
    { "type": "Feature", "properties": { "id": "211", "cod_ibge": "230440", "id_cras": "23044003000", "nome": "CRAS GRANJA PORTUGAL", "tipo": "Rua", "logradouro": "HUMBERTO LOMEU", "numero": "1130", "complemento": "", "bairro": "GRANJA PORTUGAL", "referencia": "CAPS Infantil", "cep": "60541115", "municipio": "Fortaleza", "capacidade": "5.000 famílias referenciadas" }, "geometry": { "type": "Point", "coordinates": [ -38.601966, -3.782036 ] } },
    { "type": "Feature", "properties": { "id": "212", "cod_ibge": "230350", "id_cras": "23035020400", "nome": "CRAS Guanacés", "tipo": "Rua", "logradouro": "IZAAC BENICIO", "numero": "970", "complemento": "-", "bairro": "GUANACES", "referencia": "PROXIMO A PRAÇA DA MATRIZ", "cep": "62850000", "municipio": "Cascavel", "capacidade": "5.000 famílias referenciadas" },