{
    "type": "FeatureCollection",
    "crs": { "type": "name", "properties": { "name": "urn:ogc:def:crs:OGC:1.3:CRS84" } },
                                                                                    
    "features": [
    { "type": "Feature", "properties": { "id": "1", "ibge": "230020", "id_creas": "12300201500", "nome_creas": "CREAS ACARAÚ", "logradouro": "NICODEMOS ARAÚJO", "numero": "346", "bairro": "CENTRO", "cep": "62580-000", "municipio": "Acaraú" }, "geometry": { "type": "Point", "coordinates": [ -40.116548, -2.884133 ] } },
    { "type": "Feature", "properties": { "id": "2", "ibge": "230075", "id_creas": "12300751800", "nome_creas": "CREAS", "logradouro": "MARTINS TEIXEIRA", "numero": "1521", "bairro": "TORRES", "cep": "62540-000", "municipio": "Amontada" }, "geometry": { "type": "Point", "coordinates": [ -39.824839, -3.360885 ] } },
    { "type": "Feature", "properties": { "id": "3", "ibge": "230090", "id_creas": "12300901500", "nome_creas": "CREAS", "logradouro": "15 DE AGOSTO", "numero": "49", "bairro": "CENTRO", "cep": "62630-000", "municipio": "Apuiarés" }, "geometry": { "type": "Point", "coordinates": [ -39.432, -3.949 ] } },
    { "type": "Feature", "properties": { "id": "4", "ibge": "230100", "id_creas": "12301000200", "nome_creas": "CREAS", "logradouro": "SANTOS DUMONT", "numero": "775", "bairro": "CENTRO", "cep": "61700-000", "municipio": "Aquiraz" }, "geometry": { "type": "Point", "coordinates": [ -38.387088, -3.902811 ] } },
    { "type": "Feature", "properties": { "id": "5", "ibge": "230110", "id_creas": "12301101100", "nome_creas": "CREAS", "logradouro": "DOM MANOEL", "numero": "654", "bairro": "Nª SRA. DE LOURDES", "cep": "62800-000", "municipio": "Aracati" }, "geometry": { "type": "Point", "coordinates": [ -37.773829, -4.567794 ] } },
    { "type": "Feature", "properties": { "id": "6", "ibge": "230170", "id_creas": "12301703500", "nome_creas": "CREAS ARAÇÁ", "logradouro": "CICERO JOSE DO NASCIMENTO", "numero": "312", "bairro": "ARAÇÁ", "cep": "63360-000", "municipio": "Aurora" }, "geometry": { "type": "Point", "coordinates": [ -38.971465, -6.94267 ] } },
    { "type": "Feature", "properties": { "id": "7", "ibge": "230185", "id_creas": "12301852200", "nome_creas": "CREAS", "logradouro": "FRANCISCO CALIXTO", "numero": "0", "bairro": "CENTRO", "cep": "63960-000", "municipio": "Banabuiú" }, "geometry": { "type": "Point", "coordinates": [ -38.920317, -5.306358 ] } },
    { "type": "Feature", "properties": { "id": "8", "ibge": "230200", "id_creas": "12302001700", "nome_creas": "CREAS", "logradouro": "CRISANTINA MONTEIRO", "numero": "0", "bairro": "CENTRO", "cep": "63380-000", "municipio": "Barro" }, "geometry": { "type": "Point", "coordinates": [ -38.78118, -7.180575 ] } },
    { "type": "Feature", "properties": { "id": "9", "ibge": "230210", "id_creas": "12302103400", "nome_creas": "CREAS BATURITÉ", "logradouro": "PADRE ARTHUR REDONDO", "numero": "0", "bairro": "BEIRA RIO", "cep": "62760-000", "municipio": "Baturité" }, "geometry": { "type": "Point", "coordinates": [ -38.878008, -4.332878 ] } },
    { "type": "Feature", "properties": { "id": "10", "ibge": "230220", "id_creas": "12302200400", "nome_creas": "CREAS", "logradouro": "GENERAL EDGAR FACÓ", "numero": "243", "bairro": "CENTRO", "cep": "62840-000", "municipio": "Beberibe" }, "geometry": { "type": "Point", "coordinates": [ -38.132467, -4.182509 ] } },
    { "type": "Feature", "properties": { "id": "11", "ibge": "230240", "id_creas": "12302402700", "nome_creas": "CREAS VÂNIA ARAÚJO DA SILVA", "logradouro": "ANTONIO QUEIROZ", "numero": "237", "bairro": "CENTRO", "cep": "63870-000", "municipio": "Boa Viagem" }, "geometry": { "type": "Point", "coordinates": [ -39.732213, -5.126046 ] } },
    { "type": "Feature", "properties": { "id": "12", "ibge": "230250", "id_creas": "12302501000", "nome_creas": "CREAS", "logradouro": "RUA CASA PEREIRA", "numero": "100", "bairro": "CENTRO", "cep": "63260-000", "municipio": "Brejo Santo" }, "geometry": { "type": "Point", "coordinates": [ -38.986659, -7.487835 ] } },
    { "type": "Feature", "properties": { "id": "13", "ibge": "230260", "id_creas": "12302600900", "nome_creas": "CREAS - FRANCISCO ALCY DE ALBUQUERQUE", "logradouro": "NOSSA SENHORA DAS GRAÇAS", "numero": "158", "bairro": "OLINDA I", "cep": "62400-000", "municipio": "Camocim" }, "geometry": { "type": "Point", "coordinates": [ -40.84536, -2.916586 ] } },
    { "type": "Feature", "properties": { "id": "14", "ibge": "230270", "id_creas": "12302703300", "nome_creas": "CREAS - CAMPOS SALES", "logradouro": "CECÍLIA MEIRELES", "numero": "0", "bairro": "NOVA BARRAGEM", "cep": "63150-000", "municipio": "Campos Sales" }, "geometry": { "type": "Point", "coordinates": [ -40.39981, -7.05839 ] } },
    { "type": "Feature", "properties": { "id": "15", "ibge": "230280", "id_creas": "12302800100", "nome_creas": "CREAS", "logradouro": "FRANCISCO CORDEIRO CAMPOS", "numero": "827", "bairro": "MONTE", "cep": "62700-000", "municipio": "Canindé" }, "geometry": { "type": "Point", "coordinates": [ -39.312687, -4.360169 ] } },
    { "type": "Feature", "properties": { "id": "16", "ibge": "230350", "id_creas": "12303501400", "nome_creas": "CREAS", "logradouro": "FRANCISCO GALDINO DE SOUSA", "numero": "2618", "bairro": "RIO NOVO", "cep": "62850-000", "municipio": "Cascavel" }, "geometry": { "type": "Point", "coordinates": [ -38.239782, -4.13429 ] } },
    { "type": "Feature", "properties": { "id": "17", "ibge": "230370", "id_creas": "12303700700", "nome_creas": "CREAS", "logradouro": "RUA VEREADOR PAULO GOMES DA SILVA", "numero": "177", "bairro": "PARQUE SOLEDADE", "cep": "61603-070", "municipio": "Caucaia" }, "geometry": { "type": "Point", "coordinates": [ -38.649645, -3.73854 ] } },
    { "type": "Feature", "properties": { "id": "18", "ibge": "230410", "id_creas": "12304102400", "nome_creas": "CREAS - CRATEÚS - CE", "logradouro": "MANUEL BALBINO", "numero": "180", "bairro": "SANTA LUZIA", "cep": "63700-000", "municipio": "Crateús" }, "geometry": { "type": "Point", "coordinates": [ -40.670003, -5.194271 ] } },
    { "type": "Feature", "properties": { "id": "19", "ibge": "230420", "id_creas": "12304201300", "nome_creas": "CREAS", "logradouro": "MONSENHOR FRANCISCO ASSIS FEITOSA", "numero": "223", "bairro": "PINTO MADEIRA", "cep": "63101-245", "municipio": "Crato" }, "geometry": { "type": "Point", "coordinates": [ -39.40899, -7.234 ] } },
    { "type": "Feature", "properties": { "id": "20", "ibge": "230428", "id_creas": "12304281500", "nome_creas": "CREAS - EUSÉBIO", "logradouro": "IRMÃ AMBROSINA", "numero": "0", "bairro": "CENTRO", "cep": "61760-000", "municipio": "Eusébio" }, "geometry": { "type": "Point", "coordinates": [ -38.450931, -3.892236 ] } },
    { "type": "Feature", "properties": { "id": "21", "ibge": "230435", "id_creas": "12304351300", "nome_creas": "CREAS DANIELA COSMO", "logradouro": "TENENTE VICENTE CESÁRIO", "numero": "0", "bairro": "EDMUNDO RODRIGUES", "cep": "62115-000", "municipio": "Forquilha" }, "geometry": { "type": "Point", "coordinates": [ -40.26029, -3.796247 ] } },
    { "type": "Feature", "properties": { "id": "22", "ibge": "230440", "id_creas": "12304402100", "nome_creas": "CREAS LUCIANO CAVALCANTE", "logradouro": "DR THOMPSON BULCÃO", "numero": "853", "bairro": "LUCIANO CAVALCANTE", "cep": "60810-460", "municipio": "Fortaleza" }, "geometry": { "type": "Point", "coordinates": [ -38.496587, -3.768145 ] } },
    { "type": "Feature", "properties": { "id": "23", "ibge": "230470", "id_creas": "12304701400", "nome_creas": "CREAS", "logradouro": "DR. JOÃO PESSOA", "numero": "477", "bairro": "CENTRO", "cep": "62430-000", "municipio": "Granja" }, "geometry": { "type": "Point", "coordinates": [ -40.829034, -3.117671 ] } },
    { "type": "Feature", "properties": { "id": "24", "ibge": "230495", "id_creas": "12304953200", "nome_creas": "CREAS", "logradouro": "ANTONIO ACCIOLY", "numero": "215", "bairro": "CENTRO", "cep": "61890-000", "municipio": "Guaiúba" }, "geometry": { "type": "Point", "coordinates": [ -38.637303, -4.040139 ] } },
    { "type": "Feature", "properties": { "id": "25", "ibge": "230500", "id_creas": "12305002000", "nome_creas": "CREAS", "logradouro": "FRANCISCO BEZERRA", "numero": "0", "bairro": "CENTRO", "cep": "62380-000", "municipio": "Guaraciaba do Norte" }, "geometry": { "type": "Point", "coordinates": [ -40.74842, -4.167263 ] } },
    { "type": "Feature", "properties": { "id": "26", "ibge": "230523", "id_creas": "12305231800", "nome_creas": "CREAS", "logradouro": "ANTONIO AGOSTINHO DA SILVA", "numero": "27", "bairro": "CENTRO", "cep": "62880-000", "municipio": "Horizonte" }, "geometry": { "type": "Point", "coordinates": [ -38.499511, -4.101094 ] } },
    { "type": "Feature", "properties": { "id": "27", "ibge": "230540", "id_creas": "12305400400", "nome_creas": "CREAS", "logradouro": "JOSEFA NOGUEIRA MONTEIRO", "numero": "1640", "bairro": "CENTRO", "cep": "63430-000", "municipio": "Icó" }, "geometry": { "type": "Point", "coordinates": [ -38.859758, -6.403651 ] } },
    { "type": "Feature", "properties": { "id": "28", "ibge": "230550", "id_creas": "12305500500", "nome_creas": "CREAS", "logradouro": "RUA ENGENHEIRO WILTON CORREIA LIMA", "numero": "0", "bairro": "PRADO", "cep": "63500-000", "municipio": "Iguatu" }, "geometry": { "type": "Point", "coordinates": [ -39.29536, -6.371664 ] } },
    { "type": "Feature", "properties": { "id": "29", "ibge": "230610", "id_creas": "12306100800", "nome_creas": "CREAS IRAUÇUBA", "logradouro": "CATEQUISTA MAROCA RAMOS", "numero": "48", "bairro": "CENTRO", "cep": "62620-000", "municipio": "Irauçuba" }, "geometry": { "type": "Point", "coordinates": [ -39.78182, -3.74601 ] } },
    { "type": "Feature", "properties": { "id": "30", "ibge": "230625", "id_creas": "12306250600", "nome_creas": "CREAS RAKELLY MATIAS ALVES", "logradouro": "CLARISSE ASSUNÇÃO", "numero": "8", "bairro": "CENTRO", "cep": "61880-000", "municipio": "Itaitinga" }, "geometry": { "type": "Point", "coordinates": [ -38.531091, -3.973283 ] } },
    { "type": "Feature", "properties": { "id": "31", "ibge": "230640", "id_creas": "12306401400", "nome_creas": "CREAS", "logradouro": "PRESMILAU CAMERINO", "numero": "0", "bairro": "COQUEIRO", "cep": "62500-000", "municipio": "Itapipoca" }, "geometry": { "type": "Point", "coordinates": [ -39.576392, -3.497652 ] } },
    { "type": "Feature", "properties": { "id": "32", "ibge": "230690", "id_creas": "12306900300", "nome_creas": "CREAS - MARIAS DE JULHO", "logradouro": "SETE DE SETEMBRO, 530", "numero": "530", "bairro": "CENTRO", "cep": "63475-000", "municipio": "Jaguaribe" }, "geometry": { "type": "Point", "coordinates": [ -38.623589, -5.891094 ] } },
    { "type": "Feature", "properties": { "id": "33", "ibge": "230725", "id_creas": "12307251000", "nome_creas": "CREAS - JIJOCA DE JERICOACOARA", "logradouro": "TRAVESSA AFONSO FONTES", "numero": "0", "bairro": "CENTRO", "cep": "62598-000", "municipio": "Jijoca de Jericoacoara" }, "geometry": { "type": "Point", "coordinates": [ -40.443667, -2.904435 ] } },
    { "type": "Feature", "properties": { "id": "34", "ibge": "230730", "id_creas": "12307301200", "nome_creas": "CREAS", "logradouro": "SANTA CECÍLIA", "numero": "220", "bairro": "SOCORRO", "cep": "63010-430", "municipio": "Juazeiro do Norte" }, "geometry": { "type": "Point", "coordinates": [ -39.320197, -7.210204 ] } },
    { "type": "Feature", "properties": { "id": "35", "ibge": "230740", "id_creas": "12307403500", "nome_creas": "CREAS", "logradouro": "FRANCISCO XAVIER FILHO", "numero": "0", "bairro": "CENTRO", "cep": "63580-000", "municipio": "Jucás" }, "geometry": { "type": "Point", "coordinates": [ -39.525372, -6.520939 ] } },
    { "type": "Feature", "properties": { "id": "36", "ibge": "230750", "id_creas": "12307503400", "nome_creas": "CREAS MARIA GENECELDA DE SOUSA", "logradouro": "RUA ELESBÃO DE ALMEIDA CRISPIM", "numero": "0", "bairro": "CENTRO", "cep": "63300-000", "municipio": "Lavras da Mangabeira" }, "geometry": { "type": "Point", "coordinates": [ -38.964064, -6.754837 ] } },
    { "type": "Feature", "properties": { "id": "37", "ibge": "230760", "id_creas": "12307601700", "nome_creas": "CREAS", "logradouro": "CEL. JOSÉ NUNES", "numero": "545", "bairro": "CENTRO", "cep": "62930-000", "municipio": "Limoeiro do Norte" }, "geometry": { "type": "Point", "coordinates": [ -38.102981, -5.155308 ] } },
    { "type": "Feature", "properties": { "id": "38", "ibge": "230765", "id_creas": "12307651400", "nome_creas": "CREAS", "logradouro": "10", "numero": "415", "bairro": "JEREISSATI II", "cep": "61900-005", "municipio": "Maracanaú" }, "geometry": { "type": "Point", "coordinates": [ -38.623359, -3.884044 ] } },
    { "type": "Feature", "properties": { "id": "39", "ibge": "230770", "id_creas": "12307700800", "nome_creas": "CREAS", "logradouro": "CORONEL MANOEL PAULA", "numero": "472", "bairro": "CENTRO", "cep": "61940-000", "municipio": "Maranguape" }, "geometry": { "type": "Point", "coordinates": [ -38.686, -3.89 ] } },
    { "type": "Feature", "properties": { "id": "40", "ibge": "230810", "id_creas": "12308103200", "nome_creas": "CREAS DE MAURITI", "logradouro": "CAPITÃO MIGUEL DANTAS", "numero": "0", "bairro": "CENTRO", "cep": "63210-000", "municipio": "Mauriti" }, "geometry": { "type": "Point", "coordinates": [ -38.773758, -7.38911 ] } },
    { "type": "Feature", "properties": { "id": "41", "ibge": "230830", "id_creas": "12308301000", "nome_creas": "CREAS ACOLHIDA FRATERNA", "logradouro": "AV. SANTANA", "numero": "213", "bairro": "MISSIONÁRIOS", "cep": "63250-000", "municipio": "Milagres" }, "geometry": { "type": "Point", "coordinates": [ -38.944055, -7.313944 ] } },
    { "type": "Feature", "properties": { "id": "42", "ibge": "230850", "id_creas": "12308503400", "nome_creas": "CREAS", "logradouro": "MANOEL ALENCAR", "numero": "21", "bairro": "CENTRO", "cep": "63610-000", "municipio": "Mombaça" }, "geometry": { "type": "Point", "coordinates": [ -39.633822, -5.747558 ] } },
    { "type": "Feature", "properties": { "id": "43", "ibge": "230870", "id_creas": "12308702200", "nome_creas": "CREAS", "logradouro": "JOAO EPIFANIO", "numero": "525", "bairro": "CENTRO", "cep": "62940-000", "municipio": "Morada Nova" }, "geometry": { "type": "Point", "coordinates": [ -38.371272, -5.105643 ] } },
    { "type": "Feature", "properties": { "id": "44", "ibge": "230950", "id_creas": "12309503300", "nome_creas": "CREAS", "logradouro": "ISAAC CÂNDIDO MARTINS", "numero": "0", "bairro": "CENTRO", "cep": "63520-000", "municipio": "Orós" }, "geometry": { "type": "Point", "coordinates": [ -38.91344, -6.244908 ] } },
    { "type": "Feature", "properties": { "id": "45", "ibge": "230960", "id_creas": "12309600200", "nome_creas": "CREAS - PACAJUS", "logradouro": "23 DE MAIO", "numero": "260", "bairro": "COAÇÚ", "cep": "62870-000", "municipio": "Pacajus" }, "geometry": { "type": "Point", "coordinates": [ -38.467491, -4.16941 ] } },
    { "type": "Feature", "properties": { "id": "46", "ibge": "230970", "id_creas": "12309701900", "nome_creas": "CREAS MUNICIPAL DE PACATUBA", "logradouro": "CHAGAS SILVA", "numero": "407", "bairro": "CENTRO", "cep": "61800-000", "municipio": "Pacatuba" }, "geometry": { "type": "Point", "coordinates": [ -38.62018, -3.983226 ] } },
    { "type": "Feature", "properties": { "id": "47", "ibge": "231020", "id_creas": "12310201600", "nome_creas": "CREAS DE PARACURU", "logradouro": "JOÃO LOPES MEIRELES", "numero": "508", "bairro": "CENTRO", "cep": "62680-000", "municipio": "Paracuru" }, "geometry": { "type": "Point", "coordinates": [ -39.02715, -3.409177 ] } },
    { "type": "Feature", "properties": { "id": "48", "ibge": "231025", "id_creas": "12310250900", "nome_creas": "CREAS", "logradouro": "JOÃO VIANA PESSOA", "numero": "0", "bairro": "LOTEAMENTO", "cep": "62685-000", "municipio": "Paraipaba" }, "geometry": { "type": "Point", "coordinates": [ -39.147677, -3.430444 ] } },
    { "type": "Feature", "properties": { "id": "49", "ibge": "231030", "id_creas": "12310303500", "nome_creas": "CREAS PARAMBU", "logradouro": "ABDIAS ALVES", "numero": "0", "bairro": "HORACIO LAVES", "cep": "63660-000", "municipio": "Parambu" }, "geometry": { "type": "Point", "coordinates": [ -40.692437, -6.216692 ] } },
    { "type": "Feature", "properties": { "id": "50", "ibge": "231050", "id_creas": "12310501800", "nome_creas": "CREAS", "logradouro": "FRANCISCO VIEIRA CAVALCANTE", "numero": "315", "bairro": "CENTRO", "cep": "63630-000", "municipio": "Pedra Branca" }, "geometry": { "type": "Point", "coordinates": [ -39.713151, -5.456744 ] } },
    { "type": "Feature", "properties": { "id": "51", "ibge": "231060", "id_creas": "12310602400", "nome_creas": "CREAS JOSE FRANCISCO DA SILVA", "logradouro": "MARIA DE FÁTIMA SANTANA DO NASCIMENTO", "numero": "12", "bairro": "MÃE MARIA", "cep": "63280-000", "municipio": "Penaforte" }, "geometry": { "type": "Point", "coordinates": [ -39.07353, -7.828999 ] } },
    { "type": "Feature", "properties": { "id": "52", "ibge": "231126", "id_creas": "12311263300", "nome_creas": "CREAS", "logradouro": "RUA DAS ACACIAS", "numero": "100", "bairro": "CENTRO", "cep": "63650-000", "municipio": "Quiterianópolis" }, "geometry": { "type": "Point", "coordinates": [ -40.701, -5.843 ] } },
    { "type": "Feature", "properties": { "id": "53", "ibge": "231130", "id_creas": "12311301600", "nome_creas": "CREAS", "logradouro": "JOSÉ JUCÁ", "numero": "110", "bairro": "CENTRO", "cep": "63903-537", "municipio": "Quixadá" }, "geometry": { "type": "Point", "coordinates": [ -39.022021, -4.972612 ] } },
    { "type": "Feature", "properties": { "id": "54", "ibge": "231140", "id_creas": "12311401600", "nome_creas": "CREAS DE QUIXERAMOBIM", "logradouro": "RUA DR. MONTEIRO FILHO", "numero": "8", "bairro": "CENTRO", "cep": "63800-000", "municipio": "Quixeramobim" }, "geometry": { "type": "Point", "coordinates": [ -39.298377, -5.198273 ] } },
    { "type": "Feature", "properties": { "id": "55", "ibge": "231180", "id_creas": "12311801300", "nome_creas": "CREAS", "logradouro": "PADRE ZACARIAS RAMALHO", "numero": "155", "bairro": "CENTRO", "cep": "62900-000", "municipio": "Russas" }, "geometry": { "type": "Point", "coordinates": [ -37.971668, -4.937096 ] } },
    { "type": "Feature", "properties": { "id": "56", "ibge": "231200", "id_creas": "12312003100", "nome_creas": "CREAS - PROFESSORA SORAIA GALDINO", "logradouro": "DR. MANOEL JOAQUIM", "numero": "0", "bairro": "JOÃO ALFREDO", "cep": "62150-000", "municipio": "Santana do Acaraú" }, "geometry": { "type": "Point", "coordinates": [ -40.211944, -3.467239 ] } },
    { "type": "Feature", "properties": { "id": "57", "ibge": "231230", "id_creas": "12312301100", "nome_creas": "CREAS -  SÃO BENEDITO", "logradouro": "IRINEU PINTO DA SILVEURA", "numero": "262", "bairro": "CASTELO", "cep": "62370-000", "municipio": "São Benedito" }, "geometry": { "type": "Point", "coordinates": [ -40.864806, -4.044412 ] } },
    { "type": "Feature", "properties": { "id": "58", "ibge": "231240", "id_creas": "12312401200", "nome_creas": "CREAS", "logradouro": "ESTER MARTINS", "numero": "33", "bairro": "CENTRO", "cep": "62670-000", "municipio": "São Gonçalo do Amarante" }, "geometry": { "type": "Point", "coordinates": [ -38.969, -3.606 ] } },
    { "type": "Feature", "properties": { "id": "59", "ibge": "231290", "id_creas": "12312901400", "nome_creas": "CREAS - MANOEL VIEIRA LINHARES", "logradouro": "SDO", "numero": "100", "bairro": "CENTRO", "cep": "62010-720", "municipio": "Sobral" }, "geometry": { "type": "Point", "coordinates": [ -40.35598, -3.695994 ] } },
    { "type": "Feature", "properties": { "id": "60", "ibge": "231330", "id_creas": "12313300200", "nome_creas": "CREAS", "logradouro": "DONDON FEITOSA", "numero": "639", "bairro": "CENTRO", "cep": "63660-000", "municipio": "Tauá" }, "geometry": { "type": "Point", "coordinates": [ -40.294535, -6.001076 ] } },
    { "type": "Feature", "properties": { "id": "61", "ibge": "231340", "id_creas": "12313401100", "nome_creas": "CREAS - TIANGUÁ", "logradouro": "TEÓFILO RAMOS", "numero": "299", "bairro": "CENTRO", "cep": "62320-041", "municipio": "Tianguá" }, "geometry": { "type": "Point", "coordinates": [ -40.994518, -3.726734 ] } },
    { "type": "Feature", "properties": { "id": "62", "ibge": "231370", "id_creas": "12313703400", "nome_creas": "CREAS JOAO LUIZ GONZAGA", "logradouro": "CORONEL ANTÔNIO MALHEIROS", "numero": "170", "bairro": "CENTRO", "cep": "63310-000", "municipio": "Umari" }, "geometry": { "type": "Point", "coordinates": [ -38.699255, -6.646577 ] } },
    { "type": "Feature", "properties": { "id": "63", "ibge": "231380", "id_creas": "12313800600", "nome_creas": "CREAS - URUBURETAMA", "logradouro": "FARMACÊUTICO JOSÉ RODRIGUES", "numero": "1049", "bairro": "CENTRO", "cep": "62650-000", "municipio": "Uruburetama" }, "geometry": { "type": "Point", "coordinates": [ -39.508, -3.625 ] } },
    { "type": "Feature", "properties": { "id": "64", "ibge": "231410", "id_creas": "12314100200", "nome_creas": "CREAS", "logradouro": "LOTEAMENTO MANOEL JOANA", "numero": "0", "bairro": "BAIRRO DE FÁTIMA", "cep": "62300-000", "municipio": "Viçosa do Ceará" }, "geometry": { "type": "Point", "coordinates": [ -41.091098, -3.5775 ] } },
    { "type": "Feature", "properties": { "id": "65", "ibge": "230010", "id_creas": "23001098900", "nome_creas": "CREAS", "logradouro": "LICINIO LEITE", "numero": "0", "bairro": "CAPOEIRAS", "cep": "63240-000", "municipio": "Abaiara" }, "geometry": { "type": "Point", "coordinates": [ -39.0530123027565, -7.35883392096844 ] } },
    { "type": "Feature", "properties": { "id": "66", "ibge": "230030", "id_creas": "23003093800", "nome_creas": "CREAS FRANCISCO GUILHERME SOBRINHO", "logradouro": "CAZUZINHA MARQUES", "numero": "258", "bairro": "CENTRO", "cep": "63560-000", "municipio": "Acopiara" }, "geometry": { "type": "Point", "coordinates": [ -39.451989, -6.094568 ] } },
    { "type": "Feature", "properties": { "id": "67", "ibge": "230070", "id_creas": "23007093900", "nome_creas": "CREAS", "logradouro": "AVENIDA DR. EDSON GUERRA", "numero": "657", "bairro": "CENTRO", "cep": "62970-000", "municipio": "Alto Santo" }, "geometry": { "type": "Point", "coordinates": [ -38.267291, -5.514628 ] } },
    { "type": "Feature", "properties": { "id": "68", "ibge": "230120", "id_creas": "23012094600", "nome_creas": "CREAS", "logradouro": "SANTOS DUMONT", "numero": "0", "bairro": "CENTRO", "cep": "62750-000", "municipio": "Aracoiaba" }, "geometry": { "type": "Point", "coordinates": [ -38.812165, -4.371872 ] } },
    { "type": "Feature", "properties": { "id": "69", "ibge": "230130", "id_creas": "23013094800", "nome_creas": "CREAS", "logradouro": "SANTO ANTÔNIO", "numero": "0", "bairro": "CENTRO", "cep": "63170-000", "municipio": "Araripe" }, "geometry": { "type": "Point", "coordinates": [ -40.045999, -7.213 ] } },
    { "type": "Feature", "properties": { "id": "70", "ibge": "230160", "id_creas": "23016093800", "nome_creas": "CREAS MARIA JOAQUINA PEREIRA (QUINA)", "logradouro": "PADRE EMILIO CABRAL", "numero": "208", "bairro": "CENTRO", "cep": "63140-000", "municipio": "Assaré" }, "geometry": { "type": "Point", "coordinates": [ -39.869116, -6.87495 ] } },
    { "type": "Feature", "properties": { "id": "71", "ibge": "230190", "id_creas": "23019095200", "nome_creas": "CREAS", "logradouro": "RUA ANTÔNIO ADRIANO DE ALMEIDA", "numero": "0", "bairro": "SANTO ANTÔNIO", "cep": "63180-000", "municipio": "Barbalha" }, "geometry": { "type": "Point", "coordinates": [ -39.302, -7.305 ] } },
    { "type": "Feature", "properties": { "id": "72", "ibge": "230230", "id_creas": "23023093800", "nome_creas": "CREAS JOSÉ RIBAMAR MENDES", "logradouro": "JOÃO AMBRÓSIO DE ARAÚJO", "numero": "0", "bairro": "BRASÍLIA", "cep": "62570-000", "municipio": "Bela Cruz" }, "geometry": { "type": "Point", "coordinates": [ -40.166445, -3.058346 ] } },
    { "type": "Feature", "properties": { "id": "73", "ibge": "230290", "id_creas": "23029094900", "nome_creas": "CREAS", "logradouro": "RUA JOSÉ SARAIVA SOBRINHO", "numero": "0", "bairro": "CENTRO", "cep": "62748-000", "municipio": "Capistrano" }, "geometry": { "type": "Point", "coordinates": [ -38.903532, -4.466337 ] } },
    { "type": "Feature", "properties": { "id": "74", "ibge": "230300", "id_creas": "23030097200", "nome_creas": "CREAS", "logradouro": "CORONEL FRANCISCO LINHARES", "numero": "0", "bairro": "CENTRO", "cep": "62730-000", "municipio": "Caridade" }, "geometry": { "type": "Point", "coordinates": [ -39.192999, -4.232 ] } },
    { "type": "Feature", "properties": { "id": "75", "ibge": "230320", "id_creas": "23032093700", "nome_creas": "CREAS", "logradouro": "FRANCISCO BERNARDINO BORGES", "numero": "0", "bairro": "CONJUNTO EDMILSON LEITE", "cep": "63220-000", "municipio": "Caririaçu" }, "geometry": { "type": "Point", "coordinates": [ -39.294968, -7.039908 ] } },
    { "type": "Feature", "properties": { "id": "76", "ibge": "230340", "id_creas": "23034096000", "nome_creas": "CREAS", "logradouro": "RUA 22 DE JULHO", "numero": "96", "bairro": "NOVO HORIZONTE", "cep": "62375-000", "municipio": "Carnaubal" }, "geometry": { "type": "Point", "coordinates": [ -40.997114, -4.10843 ] } },
    { "type": "Feature", "properties": { "id": "77", "ibge": "230370", "id_creas": "23037095800", "nome_creas": "CREAS - JUREMA", "logradouro": "JURUPARI", "numero": "668", "bairro": "GUADALAJARA", "cep": "61600-000", "municipio": "Caucaia" }, "geometry": { "type": "Point", "coordinates": [ -38.618765, -3.759124 ] } },
    { "type": "Feature", "properties": { "id": "78", "ibge": "230380", "id_creas": "23038094300", "nome_creas": "CREAS", "logradouro": "JOAQUIM ALVES DOS SANTOS", "numero": "553", "bairro": "CENTRO", "cep": "63400-000", "municipio": "Cedro" }, "geometry": { "type": "Point", "coordinates": [ -39.062844, -6.608413 ] } },
    { "type": "Feature", "properties": { "id": "79", "ibge": "230400", "id_creas": "23040097700", "nome_creas": "CREAS", "logradouro": "TABELIÃO ANGELIM", "numero": "0", "bairro": "CENTRO", "cep": "62160-000", "municipio": "Coreaú" }, "geometry": { "type": "Point", "coordinates": [ -40.656905, -3.551304 ] } },
    { "type": "Feature", "properties": { "id": "80", "ibge": "230425", "id_creas": "23042597500", "nome_creas": "CREAS", "logradouro": "7 DE SETEMBRO", "numero": "0", "bairro": "CENTRO", "cep": "62595-000", "municipio": "Cruz" }, "geometry": { "type": "Point", "coordinates": [ -40.176337, -2.924997 ] } },
    { "type": "Feature", "properties": { "id": "81", "ibge": "230430", "id_creas": "23043096100", "nome_creas": "CREAS ERIC LUDOVIC SIRIACO OLIVEIRA", "logradouro": "ARACY FREITAS FRANCELINO", "numero": "0", "bairro": "CENTRO", "cep": "63185-000", "municipio": "Farias Brito" }, "geometry": { "type": "Point", "coordinates": [ -39.571261, -6.924789 ] } },
    { "type": "Feature", "properties": { "id": "82", "ibge": "230440", "id_creas": "23044094300", "nome_creas": "CREAS RODOLFO TEÓFILO", "logradouro": "DOM LINO", "numero": "1001", "bairro": "RODOLFO TEÓFILO", "cep": "60450-280", "municipio": "Fortaleza" }, "geometry": { "type": "Point", "coordinates": [ -38.555467, -3.743607 ] } },
    { "type": "Feature", "properties": { "id": "83", "ibge": "230440", "id_creas": "23044097100", "nome_creas": "CREAS CONJUNTO CEARÁ", "logradouro": "ALANIS MARIA LAURINDO DE OLIVEIRA", "numero": "461", "bairro": "CONJUNTO CEARÁ I", "cep": "60533-603", "municipio": "Fortaleza" }, "geometry": { "type": "Point", "coordinates": [ -38.601322, -3.78234 ] } },
    { "type": "Feature", "properties": { "id": "84", "ibge": "230440", "id_creas": "23044097200", "nome_creas": "CREAS ALVORADA", "logradouro": "CRISANTO MOREIRA DA ROCHA", "numero": "650", "bairro": "SAPIRANGA", "cep": "60822-305", "municipio": "Fortaleza" }, "geometry": { "type": "Point", "coordinates": [ -38.478595, -3.794036 ] } },
    { "type": "Feature", "properties": { "id": "85", "ibge": "230440", "id_creas": "23044097600", "nome_creas": "CREAS MUCURIPE", "logradouro": "MANUEL JESUÍNO", "numero": "153", "bairro": "MUCURIPE", "cep": "60175-270", "municipio": "Fortaleza" }, "geometry": { "type": "Point", "coordinates": [ -38.484646, -3.726938 ] } },
    { "type": "Feature", "properties": { "id": "86", "ibge": "230440", "id_creas": "23044098100", "nome_creas": "CREAS MONTE CASTELO", "logradouro": "GILBERTO CAMARA", "numero": "996", "bairro": "ELLERY", "cep": "60320-280", "municipio": "Fortaleza" }, "geometry": { "type": "Point", "coordinates": [ -38.55095, -3.73425 ] } },
    { "type": "Feature", "properties": { "id": "87", "ibge": "230530", "id_creas": "23053095800", "nome_creas": "CREAS", "logradouro": "RUA CAPITÃO PEDRO", "numero": "0", "bairro": "CENTRO", "cep": "62360-000", "municipio": "Ibiapina" }, "geometry": { "type": "Point", "coordinates": [ -40.889592, -3.922429 ] } },
    { "type": "Feature", "properties": { "id": "88", "ibge": "230535", "id_creas": "23053593800", "nome_creas": "CREAS", "logradouro": "RUA DOS PORFÍRIOS", "numero": "908", "bairro": "CENTRO", "cep": "62810-000", "municipio": "Icapuí" }, "geometry": { "type": "Point", "coordinates": [ -37.354511, -4.714278 ] } },
    { "type": "Feature", "properties": { "id": "89", "ibge": "230560", "id_creas": "23056094500", "nome_creas": "CREAS", "logradouro": "PLANALTO", "numero": "126", "bairro": "LIBERDADE", "cep": "63640-000", "municipio": "Independência" }, "geometry": { "type": "Point", "coordinates": [ -40.304224, -5.391807 ] } },
    { "type": "Feature", "properties": { "id": "90", "ibge": "230580", "id_creas": "23058096300", "nome_creas": "CREAS - MARIA CECILIA MARTINS - DONA CAÇULA", "logradouro": "RUA DOUTOR FELIX CANDIDO", "numero": "607", "bairro": "ALTO DOS QUATORZE", "cep": "62250-000", "municipio": "Ipu" }, "geometry": { "type": "Point", "coordinates": [ -40.716327, -4.332361 ] } },
    { "type": "Feature", "properties": { "id": "91", "ibge": "230590", "id_creas": "23059097800", "nome_creas": "CREAS - RESGATANDO A VIDA", "logradouro": "CORONEL JOSE BENTO", "numero": "0", "bairro": "CENTRO", "cep": "62230-000", "municipio": "Ipueiras" }, "geometry": { "type": "Point", "coordinates": [ -40.71899, -4.542 ] } },
    { "type": "Feature", "properties": { "id": "92", "ibge": "230630", "id_creas": "23063094600", "nome_creas": "CREAS MARIA DE LOURDES NUNES FERREIRA", "logradouro": "ALBA VALDEZ", "numero": "139", "bairro": "PADRE LIMA", "cep": "62600-000", "municipio": "Itapajé" }, "geometry": { "type": "Point", "coordinates": [ -39.586465, -3.68152 ] } },
    { "type": "Feature", "properties": { "id": "93", "ibge": "230655", "id_creas": "23065594900", "nome_creas": "CREAS", "logradouro": "JOSÉ FERNANDES DE SOUSA", "numero": "368", "bairro": "CENTRO", "cep": "62590-000", "municipio": "Itarema" }, "geometry": { "type": "Point", "coordinates": [ -39.916978, -2.92219 ] } },
    { "type": "Feature", "properties": { "id": "94", "ibge": "230660", "id_creas": "23066099300", "nome_creas": "CREAS", "logradouro": "ZEZE JUCÁ", "numero": "999", "bairro": "CENTRO", "cep": "62725-000", "municipio": "Itatira" }, "geometry": { "type": "Point", "coordinates": [ -39.675847291946397, -4.65155074962312 ] } },
    { "type": "Feature", "properties": { "id": "95", "ibge": "230700", "id_creas": "23070094000", "nome_creas": "CREAS", "logradouro": "JOÃO FRANCISCO RODRIGUES", "numero": "0", "bairro": "TABULEIRO", "cep": "62823-000", "municipio": "Jaguaruana" }, "geometry": { "type": "Point", "coordinates": [ -37.78136, -4.839528 ] } },
    { "type": "Feature", "properties": { "id": "96", "ibge": "230710", "id_creas": "23071094000", "nome_creas": "CREAS - MARIA FERREIRA CABRAL", "logradouro": "FRANCISCO RORIZ", "numero": "17", "bairro": "CENTRO", "cep": "63290-000", "municipio": "Jardim" }, "geometry": { "type": "Point", "coordinates": [ -39.280018, -7.582064 ] } },
    { "type": "Feature", "properties": { "id": "97", "ibge": "230780", "id_creas": "23078093900", "nome_creas": "CREAS", "logradouro": "CENORTE", "numero": "0", "bairro": "CENTRO", "cep": "62560-000", "municipio": "Marco" }, "geometry": { "type": "Point", "coordinates": [ -40.150343, -3.118554 ] } },
    { "type": "Feature", "properties": { "id": "98", "ibge": "230800", "id_creas": "23080093800", "nome_creas": "CREAS", "logradouro": "RUA MAJOR FELINTO AGUIAR", "numero": "23", "bairro": "CENTRO", "cep": "62140-000", "municipio": "Massapê" }, "geometry": { "type": "Point", "coordinates": [ -40.341947, -3.521902 ] } },
    { "type": "Feature", "properties": { "id": "99", "ibge": "230840", "id_creas": "23084094100", "nome_creas": "CREAS MUNICIPAL", "logradouro": "JOÃO GONÇALVES RIBEIRO", "numero": "0", "bairro": "CASIMIRO FARIAS", "cep": "63200-000", "municipio": "Missão Velha" }, "geometry": { "type": "Point", "coordinates": [ -39.142823, -7.24962 ] } },
    { "type": "Feature", "properties": { "id": "100", "ibge": "230860", "id_creas": "23086094900", "nome_creas": "CREAS MARIA ARAÚJO SOUTO", "logradouro": "RAU BARBOSA", "numero": "11", "bairro": "CARRAPICHO", "cep": "63780-000", "municipio": "Monsenhor Tabosa" }, "geometry": { "type": "Point", "coordinates": [ -40.068769, -4.7865 ] } },
    { "type": "Feature", "properties": { "id": "101", "ibge": "230890", "id_creas": "23089094200", "nome_creas": "CREAS", "logradouro": "JOSÉ IBIAPINA ROCHA", "numero": "319", "bairro": "CENTRO", "cep": "62550-000", "municipio": "Morrinhos" }, "geometry": { "type": "Point", "coordinates": [ -40.128105, -3.226969 ] } },
    { "type": "Feature", "properties": { "id": "102", "ibge": "230930", "id_creas": "23093097500", "nome_creas": "CREAS", "logradouro": "QUINTINO BOCAIÚVA", "numero": "257", "bairro": "ALTO DA BOA VISTA", "cep": "62200-000", "municipio": "Nova Russas" }, "geometry": { "type": "Point", "coordinates": [ -40.567467, -4.708064 ] } },
    { "type": "Feature", "properties": { "id": "103", "ibge": "230940", "id_creas": "23094094800", "nome_creas": "CREAS", "logradouro": "COELHO DA SILVA", "numero": "90", "bairro": "CENTRO", "cep": "63740-000", "municipio": "Novo Oriente" }, "geometry": { "type": "Point", "coordinates": [ -40.774558, -5.533846 ] } },
    { "type": "Feature", "properties": { "id": "104", "ibge": "230945", "id_creas": "23094594100", "nome_creas": "CREAS", "logradouro": "FRANCISCO ALVES DE SOUZA", "numero": "31", "bairro": "CENTRO", "cep": "62755-000", "municipio": "Ocara" }, "geometry": { "type": "Point", "coordinates": [ -38.594225, -4.490333 ] } },
    { "type": "Feature", "properties": { "id": "105", "ibge": "231070", "id_creas": "23107093700", "nome_creas": "CREAS DE PENTECOSTE", "logradouro": "SÃO JOSÉ", "numero": "155", "bairro": "ITAMARATY", "cep": "62640-000", "municipio": "Pentecoste" }, "geometry": { "type": "Point", "coordinates": [ -39.27, -3.793 ] } },
    { "type": "Feature", "properties": { "id": "106", "ibge": "231160", "id_creas": "23116094100", "nome_creas": "CREAS REDENÇÃO", "logradouro": "LUDGERO GUILHERME COSTA", "numero": "123", "bairro": "SEDE", "cep": "62790-000", "municipio": "Redenção" }, "geometry": { "type": "Point", "coordinates": [ -38.727767, -4.225274 ] } },
    { "type": "Feature", "properties": { "id": "107", "ibge": "231220", "id_creas": "23122093800", "nome_creas": "CREAS MARIA ARACI PARENTE MARTINS", "logradouro": "FRANCISCO MARTINS FILHO", "numero": "654", "bairro": "CENTRO", "cep": "62280-000", "municipio": "Santa Quitéria" }, "geometry": { "type": "Point", "coordinates": [ -40.155609, -4.335093 ] } },
    { "type": "Feature", "properties": { "id": "108", "ibge": "231270", "id_creas": "23127094000", "nome_creas": "CREAS", "logradouro": "ANTONIO SOARES", "numero": "226", "bairro": "CENTRO", "cep": "63600-000", "municipio": "Senador Pompeu" }, "geometry": { "type": "Point", "coordinates": [ -39.37767, -5.589313 ] } },
    { "type": "Feature", "properties": { "id": "109", "ibge": "231300", "id_creas": "23130094400", "nome_creas": "CREAS ANTÔNIA LUCICLEIDE PINHEIRO DA SILVA", "logradouro": "ANTONIO VALTERNO NOGUEIRA", "numero": "7", "bairro": "CENTRO", "cep": "63620-000", "municipio": "Solonópole" }, "geometry": { "type": "Point", "coordinates": [ -39.007516, -5.729496 ] } },
    { "type": "Feature", "properties": { "id": "110", "ibge": "231310", "id_creas": "23131094200", "nome_creas": "CREAS", "logradouro": "MANOEL GUERREIRO", "numero": "4622", "bairro": "POPULARES", "cep": "62960-000", "municipio": "Tabuleiro do Norte" }, "geometry": { "type": "Point", "coordinates": [ -38.125175, -5.248464 ] } },
    { "type": "Feature", "properties": { "id": "111", "ibge": "231320", "id_creas": "23132094100", "nome_creas": "CREAS", "logradouro": "FRANKLIN CAVALCANTE", "numero": "30", "bairro": "MONTE CASTELO", "cep": "63750-000", "municipio": "Tamboril" }, "geometry": { "type": "Point", "coordinates": [ -40.330003, -4.836044 ] } },
    { "type": "Feature", "properties": { "id": "112", "ibge": "231350", "id_creas": "23135094600", "nome_creas": "CREAS  ANA ELIDIANE DE OLIVEIRA SOUSA", "logradouro": "RUA DR. JOSÉ DA SILVEIRA", "numero": "161", "bairro": "CENTRO", "cep": "62690-000", "municipio": "Trairi" }, "geometry": { "type": "Point", "coordinates": [ -39.264128, -3.27206 ] } },
    { "type": "Feature", "properties": { "id": "113", "ibge": "231360", "id_creas": "23136093800", "nome_creas": "CREAS MARIA EUNICE HOLANDA CAVALCANTE", "logradouro": "JOSE LOPES FREIRE", "numero": "425", "bairro": "CENTRO", "cep": "62350-000", "municipio": "Ubajara" }, "geometry": { "type": "Point", "coordinates": [ -38.539653, -3.743928 ] } },
    { "type": "Feature", "properties": { "id": "114", "ibge": "231400", "id_creas": "23140094200", "nome_creas": "CREAS", "logradouro": "DEPUTADO LUIZ OTACÍLIO CORREIA", "numero": "347", "bairro": "CENTRO", "cep": "63540-000", "municipio": "Várzea Alegre" }, "geometry": { "type": "Point", "coordinates": [ -39.296, -6.789 ] } }
    ]
    }